country,name,capacity_mw,latitude,longitude,primary_fuel
Afghanistan,Kajaki Hydroelectric Power Plant Afghanistan,33,32.322,65.119,Hydro
Afghanistan,Mahipar Hydroelectric Power Plant Afghanistan,66,34.556,69.4787,Hydro
Afghanistan,Naghlu Dam Hydroelectric Power Plant Afghanistan,100,34.641,69.717,Hydro
Afghanistan,Nangarhar (Darunta) Hydroelectric Power Plant Afghanistan,11.55,34.4847,70.3633,Hydro
Afghanistan,Northwest Kabul Power Plant Afghanistan,42,34.5638,69.1134,Gas
Afghanistan,Pul-e-Khumri Hydroelectric Power Plant Afghanistan,6,35.9416,68.71,Hydro
Afghanistan,Sarobi Dam Hydroelectric Power Plant Afghanistan,22,34.5865,69.7757,Hydro
Albania,Bistrica 1,27,39.9116,20.1047,Hydro
Albania,Fierza,500,42.2514,20.0431,Hydro
Albania,Koman,600,42.1033,19.8224,Hydro
Albania,Lanabregas,5,41.3428,19.8964,Hydro
Albania,Shkopet,24,41.6796,19.8305,Hydro
Albania,Ulez,25,41.6796,19.8936,Hydro
Albania,Vau i Dijes,250,42.0137,19.6359,Hydro
Albania,Vlora,98,40.4874,19.434,Other
Algeria,Ain Djasser,520,35.8665,6.0262,Gas
Algeria,Annaba,71,36.8924,7.7634,Gas
Algeria,Arbaa,560,36.5988,3.1375,Gas
Algeria,Boufarik 1,100,36.5914,2.9223,Gas
Algeria,Boufarik 2,450,36.596,2.878,Gas
Algeria,Boutelilis,450,35.5658,-0.9386,Gas
Algeria,F'Krina,292,35.7666,7.3619,Gas
Algeria,Hadjret Ennous,1200,36.5767,2.0797,Gas
Algeria,Hamma 2,418,36.7489,3.0823,Gas
Algeria,Hassi Messaoud Mobile,72,31.6703,6.0531,Gas
Algeria,Hassi Messoud,600,31.6703,6.0531,Gas
Algeria,Hassi Messoud Nord 2,200,31.7877,6.0517,Gas
Algeria,Hassi Messoud Ouest,492,31.8065,5.9924,Gas
Algeria,Ighil Emda,24,36.4739,5.2719,Hydro
Algeria,Jijel,588,36.8139,5.876,Gas
Algeria,Kahrama IPP,345,35.8064,-0.2476,Gas
Algeria,Koudiet Eddraouch,1200,36.885,8.0778,Gas
Algeria,Labreg,396,34.5056,6.9848,Gas
Algeria,Marsat,840,35.8,-0.1924,Gas
Algeria,Marsat TG,184,35.8,-0.1924,Gas
Algeria,Msila 1,980,35.7071,4.4804,Gas
Algeria,Ras Djinet,672,36.8509,3.6983,Gas
Algeria,Ravin Blanc,73,35.7095,-0.6319,Gas
Algeria,Relizane,465,35.7835,0.5407,Gas
Algeria,SKB IPP,484,36.1399,2.9296,Gas
Algeria,SKS IPP SNC Lavalin,815,36.8789,6.9366,Gas
Algeria,SPP1 Thermal,150,32.9475,3.238,Gas
Algeria,Skikda,262,36.88,6.935,Gas
Algeria,Terga,1200,35.4608,-1.2295,Gas
Algeria,Tiaret,300,35.3396,1.3562,Gas
Algeria,Tilghemt 1,200,33.1319,3.348,Gas
Algeria,Tilghemt 2,600,33.1377,3.3678,Gas
Angola,Biopio,22.8,-12.4706,13.7319,Oil
Angola,Biopio (hydro),14.6,-12.4706,13.7319,Hydro
Angola,Cambambe,180,-9.7523,14.4809,Hydro
Angola,Capanda,520,-9.7955,15.4672,Hydro
Angola,Cazenga,132,-8.8383,13.2344,Gas
Angola,Huambo,16.26,-12.76,15.75,Oil
Angola,Lobito,20,-12.37,13.57,Gas
Angola,Luanda Diesel,58,-8.8383,13.2344,Oil
Angola,Luanda Refinery,18.5,-8.8383,13.2344,Oil
Angola,Malongo,10,-5.55,12.2,Oil
Angola,Matala,40,-14.7333,15.0333,Hydro
Angola,Namibe,11.68,-15.1961,12.1522,Gas
Angola,Rio Luachimo,16,-7.3,20.85,Hydro
Angola,Xitoto,11.34,-15.3333,15,Oil
Antarctica,McMurdo Station Generator,6.6,-77.847,166.6605,Oil
Antarctica,Ross Island,1,-77.8428,166.7271,Wind
Argentina,AGUA DEL CAJON (AUTOGENERADOR DEL MEM),479.2,-38.9368,-68.3556,Other
Argentina,AGUA DEL CAJON (GENERADOR DEL MEM),192,-38.9368,-68.3556,Gas
Argentina,AGUA DEL TORO,130,-34.5792,-68.9892,Hydro
Argentina,ALICURA,1050,-40.58,-70.7489,Hydro
Argentina,ALMIRANTE BROWN,25,-34.8386,-58.4033,Oil
Argentina,ALTO VALLE,97.5,-38.9524,-68.0218,Gas
Argentina,ALUMINE,1.904,-39.2145,-70.9157,Oil
Argentina,ALVAREZ CONDARCO,50.7,-33.0452,-69.0516,Hydro
Argentina,ARROYITO,128,-39.1009,-68.5982,Hydro
Argentina,ATUCHA I,370,-33.967,-59.2059,Nuclear
Argentina,ATUCHA II,745,-33.9674,-59.2045,Nuclear
Argentina,BANDERA,31,-23.8219,-64.7847,Oil
Argentina,BARILOCHE (PUERTO  MORENO),5.736,-41.1167,-71.4167,Oil
Argentina,BENJAMIN REOLIN,38.4,-32.1883,-64.3233,Hydro
Argentina,BERNARDO  DE IRIGOYEN,2.096,-26.2545,-53.6469,Oil
Argentina,C.T. RUFINO,31.9,-34.2605,-62.7107,Oil
Argentina,C.T. SAN VICENTE,27.6,-35.0241,-58.4237,Oil
Argentina,CAA CATI,1.415,-27.7534,-57.6205,Oil
Argentina,CABRA CORRAL,102,-25.2712,-65.3298,Hydro
Argentina,CACHEUTA (NUEVA),120,-33.0291,-69.1109,Hydro
Argentina,CACHI,1.07,-25.1089,-66.2106,Oil
Argentina,CAFAYATE,4.182,-26.0715,-65.9876,Oil
Argentina,CAPITAL CATAMARCA - PREDIO CHOYA,5.728,-28.4537,-65.7841,Oil
Argentina,CAPITAL CATAMARCA - PREDIO EX CARCEL,7.075,-28.4773,-65.7872,Oil
Argentina,CAPITAL CATAMARCA - PREDIO RIPIERA,4.675,-28.4684,-65.7797,Oil
Argentina,CASA DE PIEDRA,60,-38.2143,-67.1908,Hydro
Argentina,CASSAFFOUSTH,17.28,-31.3992,-64.2006,Hydro
Argentina,CENTRAL BAHIA BLANCA (PIEDRA BUENA) SA,620,-38.7872,-62.2536,Coal
Argentina,CENTRAL LOMA DE LA LATA SA,540,-38.5127,-68.6048,Gas
Argentina,CENTRAL PARQUE INDUSTRIAL LA BANDA,11.228,-38.062,-67.9463,Oil
Argentina,CENTRAL T.GENELBA,673.6,-34.9027,-58.7334,Gas
Argentina,CENTRAL T.GENELBA PLUS,164.55,-34.9027,-58.7334,Gas
Argentina,CENTRAL TERMICA BRIGADIER LOPEZ (ENARSA),280,-31.7112,-60.7811,Gas
Argentina,CENTRAL TERMICA DE CICLO COMBINADO SALTA,643,-24.7456,-65.0513,Gas
Argentina,CENTRAL TERMICA GÜEMES SA,361,-24.6894,-65.0425,Coal
Argentina,CENTRAL TERMICA LA BANDA,32,-27.7528,-64.2655,Gas
Argentina,CENTRAL TERMICA PIQUIRENDA SA,30.44,-22.3497,-63.7664,Oil
Argentina,CENTRAL TERMICA REMEDIOS DE ESCALADA,25,-34.7208,-58.3881,Oil
Argentina,CENTRAL TERMOELECTRICA GUILLERMO BROWN,524,-34.6268,-58.5438,Gas
Argentina,CENTRAL TERMOELECTRICA MANUEL BELGRANO,868.2,-24.6894,-65.0425,Gas
Argentina,CENTRAL TERMOELECTRICA TIMBUES,865.14,-32.5778,-60.791,Gas
Argentina,CH LOS CARACOLES,121.4,-31.5192,-68.9814,Hydro
Argentina,CHILECITO,5,-29.1578,-67.5069,Oil
Argentina,CHIMBERA 1,2,-31.9881,-68.5402,Solar
Argentina,CIPOLLETTI,5.78,-38.9121,-67.9427,Hydro
Argentina,COMANDANTE ANDRESITO,2.372,-25.6669,-54.0419,Oil
Argentina,COMODORO RIVADAVIA,141.02,-25.9913,-54.6278,Gas
Argentina,COMODORO RIVADAVIA - ANTONIO MORAN,16.56,-45.8467,-67.4964,Wind
Argentina,CORRIENTES,1.4,-27.4708,-58.8042,Oil
Argentina,COSTANERA,1982.2,-34.626,-58.3393,Coal
Argentina,CRUZ DE PIEDRA,17.94,-33.0349,-68.7971,Gas
Argentina,CRUZ DEL EJE,5.052,-30.7636,-64.7538,Oil
Argentina,CT 13 DE JULIO,26,-32.1613,-64.1537,Gas
Argentina,CT ALEM,15,-43.0907,-65.2298,Oil
Argentina,CT ALUMINE,6.3,-38.8706,-70.5753,Oil
Argentina,CT ARISTOBULO DEL VALLE,15,-27.0922,-54.8625,Oil
Argentina,CT ARRECIFES,20,-34.0414,-60.1297,Oil
Argentina,CT AÑATUYA,19.2,-28.4431,-62.8569,Oil
Argentina,CT AÑATUYA II,11.5,-28.4431,-62.8569,Oil
Argentina,CT BARILOCHE,20,-41.1497,-71.2633,Oil
Argentina,CT BELL VILLE,15.62,-32.6103,-62.6864,Oil
Argentina,CT BRAGADO,49.8,-35.1364,-60.4311,Gas
Argentina,CT CAPITAN SARMIENTO,5,-34.1636,-59.7683,Oil
Argentina,CT CATAMARCA,19.2,-28.4706,-65.7647,Oil
Argentina,CT CAVIAHUE,5,-38.0528,-70.6136,Oil
Argentina,CT CERES,18,-29.8883,-61.9297,Oil
Argentina,CT CHARATA,19.4,-27.2369,-61.1939,Oil
Argentina,CT CHILECITO,10,-29.1581,-67.5072,Oil
Argentina,CT CIPOLLETTI,5,-38.9133,-67.9414,Oil
Argentina,CT COLON BUENOS AIRES,15.3,-33.9222,-61.0769,Oil
Argentina,CT CONCEPCION DEL URUGUAY,41.78,-32.4767,-58.2672,Gas
Argentina,CT CORRIENTES,20,-27.4708,-58.8042,Oil
Argentina,CT ECOENERGIA (PETROBRAS),13.2,-38.6871,-62.3961,Coal
Argentina,CT ENSENADA DE BARRAGAN,567,-34.8597,-57.9557,Gas
Argentina,CT ESQUINA,16.5,-30.055,-59.5294,Oil
Argentina,CT FORMOSA II,30,-26.1764,-58.2094,Oil
Argentina,CT GENERAL VILLEGAS,23.49,-35.0347,-62.9981,Oil
Argentina,CT GOYA,13,-29.1583,-59.2728,Oil
Argentina,CT INDEPENDENCIA,120,-26.8666,-65.2247,Gas
Argentina,CT INGENIERO JUAREZ,4,-23.9078,-61.8342,Oil
Argentina,CT INTA CATAMARCA,7.04,-28.4733,-65.7275,Oil
Argentina,CT ISLA VERDE,24.5,-33.2425,-62.395,Oil
Argentina,CT JUAN JOSE CASTELLI,15,-25.9564,-60.6204,Oil
Argentina,CT JUNIN,22,-34.5708,-60.9161,Oil
Argentina,CT LA PLATA,40.4,-34.9344,-58.016,Oil
Argentina,CT LA RIOJA DELIVERY,19.2,-29.3811,-66.8325,Oil
Argentina,CT LA RIOJA SUR,10,-29.3808,-66.8319,Oil
Argentina,CT LAGUNA BLANCA,7,-25.1286,-58.2597,Oil
Argentina,CT LAS ARMAS,10.4,-37.0781,-57.8181,Gas
Argentina,CT LAS ARMAS II,23.37,-37.0781,-57.8181,Gas
Argentina,CT LAS PALMAS,6,-27.0289,-58.6997,Oil
Argentina,CT LIBERTADOR GENERAL SAN MARTIN,15,-40.8421,-68.0869,Oil
Argentina,CT LINCOLN,15.002,-34.8578,-61.5206,Oil
Argentina,CT LOBOS,15.686,-35.1917,-59.0808,Oil
Argentina,CT MAGDALENA,25,-35.1001,-57.4839,Oil
Argentina,CT MATHEU,41,-34.3931,-58.8372,Gas
Argentina,CT MEDANITOS (RINCON DE LOS SAUCES),32,-37.4102,-68.9,Oil
Argentina,CT MIRAMAR I,20,-38.2472,-57.8242,Oil
Argentina,CT OLAVARRIA,38.8,-36.9439,-60.2361,Gas
Argentina,CT ORAN,15,-23.1258,-64.3069,Oil
Argentina,CT PARANA,40,-31.7764,-60.4553,Gas
Argentina,CT PARQUE INDUSTRIAL CATAMARCA,15,-28.5339,-65.7997,Oil
Argentina,CT PASO DE LA PATRIA,7.2,-27.3236,-58.5667,Oil
Argentina,CT PEHUAJO,22.4,-35.8336,-61.8758,Oil
Argentina,CT PINAMAR,21,-37.0953,-56.8789,Gas
Argentina,CT PIRANE,16.25,-25.6786,-59.0756,Oil
Argentina,CT PLUSPETROL NORTE,246,-26.9955,-65.166,Gas
Argentina,CT RAFAELA,19.2,-31.2567,-61.5203,Oil
Argentina,CT REALICO,24,-35.055,-64.2406,Oil
Argentina,CT ROCA,130,-31.8919,-60.0106,Gas
Argentina,CT SAENZ PEÑA  I,20,-26.8156,-60.4114,Oil
Argentina,CT SAENZ PEÑA  II,15,-26.8153,-60.4125,Oil
Argentina,CT SALTO,22.5,-27.4597,-65.6055,Oil
Argentina,CT SAN MARTIN NORTE III,5.1,-34.5252,-58.6206,Oil
Argentina,CT SAN MIGUEL DE TUCUMAN,396.62,-26.9955,-65.166,Gas
Argentina,CT SAN MIGUEL NORTE III,11.5,-34.5252,-58.6206,Oil
Argentina,CT SANTA ROSA,6,-28.2628,-58.0006,Oil
Argentina,CT TARTAGAL,10,-22.5406,-63.8056,Oil
Argentina,CT TEREVINTOS,8,-28.4289,-65.7878,Oil
Argentina,CT TINOGASTA,15,-28.0486,-67.5667,Oil
Argentina,CT TUCUMAN,438,-26.9955,-65.166,Gas
Argentina,CT VENADO TUERTO,19.2,-33.7736,-61.9564,Oil
Argentina,CT VIALE,10,-31.8919,-60.0106,Oil
Argentina,CT VILLA ANGELA,15,-27.5808,-60.7094,Oil
Argentina,CT VILLA REGINA,5,-39.0872,-67.0881,Oil
Argentina,CUESTA DEL VIENTO,10.55,-30.1833,-69.0667,Hydro
Argentina,DEAN FUNES,70.12,-31.3934,-64.2059,Gas
Argentina,DIQUE,68.44,-34.8902,-57.933,Gas
Argentina,DOCK SUD,872.3,-34.6533,-58.342,Gas
Argentina,EL CADILLAL,14,-26.6156,-65.1929,Hydro
Argentina,EL CARRIZAL,17,-33.2993,-68.7199,Hydro
Argentina,EL CHOCON,1200,-39.2577,-68.7483,Hydro
Argentina,EL TIGRE,14.4,-34.61,-68.6136,Hydro
Argentina,EL TUNAL,11,-25.2323,-64.4762,Hydro
Argentina,EMBALSE,648,-32.2316,-64.4422,Nuclear
Argentina,ESCABA,24,-27.6589,-65.7633,Hydro
Argentina,ESQUINA,2.215,-30.0102,-59.5321,Oil
Argentina,EX CENTRAL BUENOS AIRES,321,-34.627,-58.3382,Gas
Argentina,FILO MORADO,67.5,-37.2742,-69.652,Gas
Argentina,FITZ SIMON,10.8,-32.1784,-64.4207,Hydro
Argentina,FLORENTINO AMEGHINO,60,-43.6996,-66.4815,Hydro
Argentina,FUTALEUFU,472,-43.1288,-71.63,Hydro
Argentina,GENERACION FRIAS SA,60,-28.6072,-65.1228,Gas
Argentina,GENERAL ACHA,1.8,-37.4309,-64.716,Wind
Argentina,GENERAL LEVALLE,72.78,-34.0364,-63.9217,Gas
Argentina,GENERAL SAN MARTIN,6,-33.0449,-68.9219,Hydro
Argentina,GOYA,1.33,-29.1388,-59.2277,Oil
Argentina,GOYA (ELECTROPATAGONIA SA),17.3,-29.1388,-59.2277,Gas
Argentina,GUILLERMO CESPEDES,5.2,-39.56,-65.6817,Hydro
Argentina,H. PICHI PICUN LEUFU,285,-40.012,-69.9918,Hydro
Argentina,ISLA VERDE,3.115,-33.2422,-62.3946,Oil
Argentina,ITA IBATE,1.052,-27.4252,-57.3341,Oil
Argentina,ITUZAINGO,1.33,-27.5785,-56.6726,Oil
Argentina,JULIAN  ROMERO,6.2,-38.8367,-68.038,Hydro
Argentina,LA CRUZ,1.33,-29.1762,-56.6394,Oil
Argentina,LA PLATA COGENERACION,128,-34.889,-57.9206,Gas
Argentina,LA RIOJA,42,-29.3823,-66.8325,Oil
Argentina,LA TABLADA,22.15,-27.4184,-55.9097,Gas
Argentina,LA VIÑA,16,-31.8708,-65.0349,Hydro
Argentina,LAS MADERAS,30,-24.4438,-65.2203,Hydro
Argentina,LOS CORONELES (EX 25  DE MAYO),6.6,-34.6,-68.5285,Hydro
Argentina,LOS MOLINOS I,59.04,-31.838,-64.4452,Hydro
Argentina,LOS MOLINOS II,4.5,-31.838,-64.4452,Hydro
Argentina,LOS QUIROGA,2.5,-27.6509,-64.3618,Hydro
Argentina,LOS REYUNOS,224,-34.6028,-68.6383,Hydro
Argentina,LUJAN DE CUYO,549.76,-33.0551,-68.981,Gas
Argentina,MAR DE AJO,34,-36.7208,-63.1977,Gas
Argentina,MAR DEL PLATA (9 DE JULIO),201.3,-38.0495,-57.546,Gas
Argentina,MAYOR BURATOVICH,2.02,-39.2291,-62.6497,Wind
Argentina,MBURUCUYA,1.035,-28.0441,-58.2285,Oil
Argentina,MERCEDES,2.308,-29.1808,-58.0793,Oil
Argentina,MODESTO MARANZANA,250,-33.1608,-64.3656,Gas
Argentina,NECOCHEA,206,-38.5785,-58.7108,Coal
Argentina,NIHUIL I,74.24,-34.9907,-68.6237,Hydro
Argentina,NIHUIL II,133.12,-34.9039,-68.6177,Hydro
Argentina,NIHUIL III,52,-34.8821,-68.576,Hydro
Argentina,NIHUIL IV,22.4,-34.833,-68.5168,Hydro
Argentina,NUEVA ESPERANZA,3.38,-26.2072,-64.2477,Oil
Argentina,NUEVO PUERTO,1217.7,-34.5721,-58.3835,Gas
Argentina,OBERA (TG Nº21 FIAT ),17.2,-27.5019,-55.1245,Gas
Argentina,ORENSE,1.72,-38.6851,-59.7804,Oil
Argentina,PARANA,845.26,-33.3549,-60.1718,Other
Argentina,PARQUE EOLICO ARAUCO SAPEM I,25.2,-28.6684,-66.7524,Wind
Argentina,PARQUE EOLICO ARAUCO SAPEM II,25.2,-28.6684,-66.7524,Wind
Argentina,PARQUE EOLICO DIADEMA,6.3,-45.7458,-67.6953,Wind
Argentina,PARQUE EOLICO EL TORDILLO,3,-45.8507,-67.9081,Wind
Argentina,PARQUE EOLICO LOMA BLANCA IV (ENARSA),50,-43.0907,-65.2298,Wind
Argentina,PARQUE EOLICO RAWSON I (ENARSA),48.6,-43.3522,-65.1734,Wind
Argentina,PARQUE EOLICO RAWSON II (ENARSA),28.8,-43.3522,-65.1734,Wind
Argentina,PASO DE LOS LIBRES,2.135,-29.7148,-57.0933,Oil
Argentina,PATAGONIA,123.7,-45.7934,-67.5145,Gas
Argentina,PERUGORRIA,1.11,-29.34,-58.6077,Oil
Argentina,PICO TRUNCADO - JORGE ROMANUTTI,2.4,-46.8065,-67.9808,Wind
Argentina,PICO TRUNCADO I,45.6,-46.7842,-67.9498,Gas
Argentina,PIEDRA DEL AGUILA (CPSA),1400,-31.6651,-63.8314,Hydro
Argentina,PIEDRAS MORAS,6.3,-32.1675,-64.2438,Hydro
Argentina,PILAR  BICENTENARIO,467,-31.6651,-63.8314,Gas
Argentina,PILAR ZANICHELLI,216,-31.6662,-63.8344,Coal
Argentina,PLANICIE BANDERITA,472,-28.5339,-65.7997,Hydro
Argentina,PLANTA PILOTO FOTOVOLTAICA SAN JUAN 1,1.2,-31.3891,-68.6752,Solar
Argentina,PRESIDENTE SARMIENTO,31.5,-31.5129,-68.5399,Gas
Argentina,PUEBLO VIEJO,19.2,-27.1149,-65.7523,Hydro
Argentina,PUERTO MADRYN,42,-42.7069,-65.1048,Gas
Argentina,PUERTO NUEVO,589,-34.5754,-58.3788,Coal
Argentina,PUNTA ALTA - CENTENARIO,1.8,-38.7833,-61.8984,Wind
Argentina,QUEBRADA DE ULLUM,45,-31.2567,-61.5203,Hydro
Argentina,RIO CORRALITO,13.2,-24.983,-65.686,Hydro
Argentina,RIO CUARTO,35.57,-33.1614,-64.3649,Gas
Argentina,RIO GRANDE,750,-53.7862,-67.7222,Hydro
Argentina,RIO HONDO,19,-27.5225,-64.8861,Hydro
Argentina,SALTO ANDERSEN,7.9,-38.8244,-64.8296,Hydro
Argentina,SALTO GRANDE (MITAD ARGENTINA),945,-31.3891,-68.6752,Hydro
Argentina,SAN FRANCISCO,40,-31.4391,-62.1119,Gas
Argentina,SAN MARTIN DE LOS ANDES,4.218,-40.1511,-71.334,Oil
Argentina,SAN NICOLAS,644,-33.3562,-60.1729,Coal
Argentina,SAN PEDRO,2.216,-26.6253,-54.1102,Oil
Argentina,SAN ROQUE,26,-31.3533,-64.3938,Hydro
Argentina,SANTA ISABEL,2.25,-36.2314,-66.9381,Oil
Argentina,SANTO TOME,2.684,-28.5497,-56.0722,Oil
Argentina,SORRENTO,226,-32.9053,-60.6807,Coal
Argentina,SUDOESTE,140,-31.463,-64.2388,Gas
Argentina,TARTAGAL,17,-22.5099,-63.797,Gas
Argentina,TENARIS SIDERCA CETE II,163.2,-33.3655,-60.1435,Gas
Argentina,TOSTADO,3.2,-29.2352,-61.7577,Oil
Argentina,ULLUM,42,-31.4557,-68.7556,Hydro
Argentina,URUGUA-I,120,-25.8766,-54.5687,Hydro
Argentina,VENADO TUERTO,9.1,-33.7777,-61.9555,Oil
Argentina,VILLA GESELL,130,-37.2487,-56.9973,Gas
Argentina,VILLA MARIA (LAS PLAYAS),48,-39.0872,-67.0881,Gas
Argentina,VUELTA DE OBLIGADO,560,-32.5807,-60.7903,Gas
Argentina,YACYRETA,1550,-27.4827,-56.7397,Hydro
Armenia,Armenian-2,375,40.1805,44.1498,Nuclear
Armenia,Hrazadan,1110,40.564,44.7479,Gas
Armenia,New Yerevan,271,40.1152,44.4973,Gas
Armenia,Sevan-Hrazdan Cascade,561,40.5078,44.7606,Hydro
Armenia,Shamb,170,39.4743,46.1306,Hydro
Armenia,Spandaryan,76,39.6494,45.85,Hydro
Armenia,Tatev,158,39.3956,46.2578,Hydro
Armenia,Yerevan,550,40.1138,44.5038,Gas
Australia,Adelaide Showgrounds,1,-34.9453,138.5882,Solar
Australia,Albany Wind Farm,21.6,-35.0641,117.7977,Wind
Australia,Amcor Gawler,4,-34.5509,138.7659,Oil
Australia,Angaston,50,-34.5034,139.0246,Oil
Australia,Anglesea,165,-38.3861,144.1828,Coal
Australia,Appin (Mine),55.6,-34.2082,150.7722,Gas
Australia,Argyle Diamond Mine,32,-16.7162,128.4031,Oil
Australia,Awaba,1.1,-33.025,151.5497,Waste
Australia,Bairnsdale,94,-37.8429,147.5639,Gas
Australia,Ballarat Base Hospital,3,-37.5596,143.8469,Gas
Australia,Bamarang,320,-34.903,150.5258,Gas
Australia,Bango Wind Farm,200,-34.6058,148.8696,Wind
Australia,Banimboola,12.85,-36.5344,147.4594,Hydro
Australia,Bankstown Sports Club,2,-33.9197,151.0332,Oil
Australia,Barcaldine (Len Wishaw),37,-23.5525,145.3142,Gas
Australia,Barron Gorge,60,-16.8502,145.6465,Hydro
Australia,Bastyan,79.9,-41.736,145.5321,Hydro
Australia,Bayswater,2640,-32.3953,150.9491,Coal
Australia,Belconnen,1,-35.2142,148.9872,Waste
Australia,Bell Bay (Bell Bay Three),115,-41.1429,146.903,Gas
Australia,Ben Lomond,200,-29.9623,151.6585,Wind
Australia,Bendeela (Shoalhaven Scheme),240,-34.7337,150.4669,Hydro
Australia,Berrimah,10,-12.4262,130.9195,Gas
Australia,Berwick,7.2,-38.1197,145.2665,Waste
Australia,Bidyadanga,1.3,-18.6816,121.7848,Oil
Australia,Blayney Wind Farm,9.9,-33.6219,149.1982,Wind
Australia,Blowering,70,-35.3986,148.2463,Hydro
Australia,Blue Lake Milling Power Plant,1,-36.3164,140.7575,Oil
Australia,Bluff Point (Woolnorth) Wind Farm,65,-40.7207,144.6869,Wind
Australia,Boco Rock,113,-36.5817,149.1083,Wind
Australia,Bodangora Wind Farm,100,-32.4137,149.059,Wind
Australia,Bogong (Mount Beauty Hydro Scheme),300,-36.8055,147.228,Hydro
Australia,Box Hill,25,-30.4994,151.6839,Wind
Australia,Braemar 1,504,-27.1109,150.9053,Gas
Australia,Braemar 2,519,-27.1128,150.9049,Gas
Australia,Bremer Bay Diesel Backup,1.3,-34.4018,119.3888,Oil
Australia,Brewer,8.5,-23.8817,133.8281,Gas
Australia,Broadmeadows,12.2,-37.6878,144.9663,Waste
Australia,Broadwater,38,-29.0118,153.4335,Biomass
Australia,Broken Hill,50,-31.9863,141.4203,Gas
Australia,Broken Hill Solar Plant,53,-31.9867,141.3915,Solar
Australia,Brooklyn,2.83,-37.818,144.8319,Waste
Australia,Broome,39.6,-17.981,122.2046,Gas
Australia,Brown Mountain,4.95,-36.5951,149.474,Hydro
Australia,Browns Plains,2.2,-27.6721,153.0663,Waste
Australia,Bulwer Island,33,-27.4036,153.1363,Gas
Australia,Buronga,150,-34.1013,142.2617,Gas
Australia,Burrendong,19,-32.6646,149.108,Hydro
Australia,Burrinjuck Power Station,27,-35.0025,148.5834,Hydro
Australia,Burrup Peninsula (Karratha Gas Plant),240,-20.6286,116.7821,Gas
Australia,Burrup Peninsula (Pluto Phase 1),160,-20.5937,116.7802,Gas
Australia,Butlers Gorge,14.4,-42.2669,146.2618,Hydro
Australia,CSIRO Energy Centre,1.5,-32.8835,151.7275,Solar
Australia,Callide A,30,-24.334,150.628,Coal
Australia,Callide B,700,-24.3449,150.6197,Coal
Australia,Callide C,840,-24.3449,150.6182,Coal
Australia,Camballin,1.04,-18.0278,124.1621,Gas
Australia,Canning Vale,4,-32.0739,115.8914,Waste
Australia,Cannington Mine,40,-21.8601,140.9158,Gas
Australia,Canunda Wind Farm,46,-37.7603,140.4033,Wind
Australia,Cape Bridgewater Wind Farm,58,-38.3577,141.385,Wind
Australia,Cape Lambert,105,-20.6488,117.1407,Gas
Australia,Cape Nelson North Wind Farm,22,-38.3676,141.543,Wind
Australia,Cape Nelson South Wind Farm,44,-38.412,141.543,Wind
Australia,Cape Preston,450,-21.0767,116.159,Gas
Australia,Cape Sir William Grant Wind Farm,54,-38.3976,141.6209,Wind
Australia,Capital Hill Wind Farm,140,-35.166,149.5186,Wind
Australia,Capral (Aluminium Smelter),300,-32.7897,151.4813,Gas
Australia,Carnarvon,15,-24.8692,113.6754,Gas
Australia,Catagunya,48,-42.4524,146.5977,Hydro
Australia,Cathedral Rocks Wind Farm,66,-34.8509,135.5852,Wind
Australia,Cawse Nickel Mine,21,-30.3808,121.1635,Gas
Australia,Cethana,85,-41.4806,146.1343,Hydro
Australia,Challicum Hills Wind Farm,52.5,-37.3893,143.1123,Wind
Australia,Channel Island,310,-12.555,130.8666,Gas
Australia,Charlestown Square,2.8,-32.9643,151.6936,Gas
Australia,Christmas Creek Iron Ore Mine,58,-22.399,119.732,Oil
Australia,Claytons,11,-37.9502,145.1187,Waste
Australia,Clements Gap Wind Farm,57,-33.5086,138.1192,Wind
Australia,Cloudbreak,44,-22.3247,119.404,Oil
Australia,Clover,30,-36.7853,147.2205,Hydro
Australia,Cluny,17,-42.5064,146.6812,Hydro
Australia,Cockburn,240,-32.2001,115.7737,Gas
Australia,Codrington Wind Farm,18.2,-38.2835,141.9547,Wind
Australia,Collgar Wind Farm,206,-31.5432,118.4566,Wind
Australia,Collie (Bluewaters),416,-33.331,116.229,Coal
Australia,Collie A,340,-33.3422,116.2612,Coal
Australia,Collinsville,190,-20.5447,147.8049,Coal
Australia,Colongra,724,-33.2099,151.5448,Gas
Australia,Condamine A,144,-26.6682,150.27,Gas
Australia,Condong Sugar Mill,30,-28.3138,153.4341,Biomass
Australia,Copeton,24,-29.9102,150.9235,Hydro
Australia,Coral Bay Diesel Backup,2.24,-23.1521,113.7762,Oil
Australia,Corio,1,-38.0587,144.4056,Waste
Australia,Crookwell Wind Farm,4.8,-34.5165,149.5425,Wind
Australia,Cullerin Range Wind Farm,30,-34.805,149.4001,Wind
Australia,Daandine,33,-27.0863,150.943,Gas
Australia,Dampier,120,-20.648,116.7219,Gas
Australia,Darling Downs,644,-27.1169,150.8942,Gas
Australia,Darlot Gold Mine,11.7,-27.8972,121.2698,Gas
Australia,Dartmouth (Mount Beauty Hydro Scheme),150,-36.5564,147.5206,Hydro
Australia,Denham Diesel Backup,1.6,-25.9167,113.534,Oil
Australia,Derby,12.53,-17.3141,123.6441,Gas
Australia,Devils Gate,60,-41.3505,146.2632,Hydro
Australia,Diamantina,242,-20.7837,139.4833,Gas
Australia,Dry Creek,156,-34.8475,138.5818,Gas
Australia,EarthPower Biomass Plant,3.9,-33.8204,151.042,Waste
Australia,Eastern Creek,5.4,-33.8142,150.8537,Waste
Australia,Eastern Creek 2,8.984,-33.8125,150.8617,Waste
Australia,Eildon,120,-37.222,145.9215,Hydro
Australia,Eildon Small Hydro,5,-37.2431,145.8974,Hydro
Australia,Elliott,1,-17.5504,133.5393,Oil
Australia,Emu Downs Wind Farm,79.2,-30.4882,115.3768,Wind
Australia,Energy Brix,195,-38.2546,146.4137,Coal
Australia,Eraring,41.5,-33.0617,151.5223,Oil
Australia,Eraring,2880,-33.0621,151.5206,Coal
Australia,Esperance,33,-33.8762,121.8998,Gas
Australia,Esperance Wind Farm Nine Mile Beach,3.6,-33.8927,121.7778,Wind
Australia,Esperance Wind Farm Ten Mile Lagoon,2.03,-33.8802,121.769,Wind
Australia,Exmouth,8,-21.9465,114.125,Gas
Australia,Fisher,43.2,-41.6732,146.2687,Hydro
Australia,Fitzroy Crossing,4.06,-18.1956,125.5597,Gas
Australia,Geraldton,21,-28.7701,114.6485,Gas
Australia,German Creek,45.2,-22.9281,148.5515,Gas
Australia,Gladstone,1680,-23.8508,151.2187,Coal
Australia,Glenbawn,5.8,-32.1097,150.9982,Hydro
Australia,Glennies Creek,13,-32.4598,151.1286,Gas
Australia,Glenorchy,1.6,-42.8415,147.255,Waste
Australia,Gordon,432,-42.7405,145.9828,Hydro
Australia,Gosnells,1.1,-32.0228,116.0129,Waste
Australia,Grange Avenue,2,-33.7029,150.8312,Waste
Australia,Grasmere Wind Farm (Albany Stage II),13.8,-35.0507,117.7638,Wind
Australia,Greenough River Solar Farm,10,-28.9043,115.1119,Solar
Australia,Gullen Range Wind Farm,166,-34.6904,149.4841,Wind
Australia,Gunning,47,-34.6977,149.3861,Wind
Australia,Guthega,80,-36.3501,148.4135,Hydro
Australia,Hallam Road,8.984,-38.0535,145.2699,Waste
Australia,Hallet 5 - The Bluff,52.5,-33.3855,138.7928,Wind
Australia,Hallett,228.3,-33.3487,138.7517,Gas
Australia,Hallett 1 Brown Hill  Wind Farm,94.5,-33.395,138.7299,Wind
Australia,Hallett 2 Hallet Hill  Wind Farm,71.4,-33.5717,138.858,Wind
Australia,Halls Creek,3.69,-18.2328,127.6619,Gas
Australia,Hazelwood,1600,-38.2731,146.3923,Coal
Australia,Henderson,3.2,-32.165,115.8008,Waste
Australia,Highbury,2,-34.849,138.7203,Waste
Australia,Hobart,1,-42.8883,147.2888,Waste
Australia,Hopetoun Diesel Backup,1.3,-33.905,120.1299,Oil
Australia,Hopetoun Wind Turbines,1.2,-33.9078,120.1297,Wind
Australia,Hume,70,-36.1066,147.0326,Hydro
Australia,Hunter,29,-32.836,151.4505,Oil
Australia,Hunter Valley,50,-32.3893,150.9664,Gas
Australia,Inkerman Sugar Mill,10.5,-19.6422,147.4016,Biomass
Australia,Invicta Sugar Mill,150,-19.5167,147.1065,Biomass
Australia,Isis Central Sugar Mill,25,-25.194,152.2086,Biomass
Australia,Jacks Gully,2.3,-34.0734,150.7427,Waste
Australia,Jeeralang A,204,-38.2753,146.4263,Gas
Australia,Jeeralang B,228,-38.2746,146.4249,Gas
Australia,Jindabyne Dam Mini Hydro,1.1,-36.4351,148.6333,Hydro
Australia,John Butters,144,-42.1548,145.5345,Hydro
Australia,Jounama,14,-35.562,148.3055,Hydro
Australia,Jundee Gold Mine,21,-26.3712,120.5776,Gas
Australia,KRC Cogeneration Plant,4.2,-27.4453,153.1185,Gas
Australia,Kalamia Sugar Mill,9,-19.5223,147.4152,Biomass
Australia,Kalamunda,1.3,-31.9768,115.9988,Oil
Australia,Kalbarri Wind Farm,1.7,-27.8995,114.1946,Wind
Australia,Kalgoorlie (Parkeston),110,-30.7378,121.5065,Gas
Australia,Kalgoorlie Nickel Smelter,42,-30.8737,121.4842,Gas
Australia,Kambalda,42,-31.1919,121.6741,Gas
Australia,Kangaroo Valley (Shoalhaven Scheme),160,-34.723,150.4795,Hydro
Australia,Kareeya,88,-17.767,145.5779,Hydro
Australia,Karratha,86,-20.7626,116.8375,Gas
Australia,Katherine,34.7,-14.4587,132.2445,Gas
Australia,Kemerton,260.9,-33.1633,115.7805,Gas
Australia,King Island (Currie),8.55,-39.9388,143.892,Oil
Australia,Kogan Creek,744,-26.9177,150.7493,Coal
Australia,Koombooloomba,7.3,-17.8313,145.6034,Hydro
Australia,Kununurra,12.4,-15.7796,128.7395,Oil
Australia,Kwinana,21,-32.197,115.7759,Gas
Australia,Kwinana (Alcoa Refinery),74.5,-32.1946,115.7797,Gas
Australia,Kwinana A,240,-32.198,115.7752,Coal
Australia,Kwinana C,184,-32.1992,115.7747,Coal
Australia,Kwinana Cogeneration,123,-32.2225,115.7661,Gas
Australia,Kwinana High Efficiency Gas Turbine Plant,200,-32.1973,115.7754,Gas
Australia,Kwinana NewGen,320,-32.202,115.7728,Gas
Australia,Kwinana Swift,120,-32.2243,115.7783,Gas
Australia,Ladbroke Grove,80,-37.4567,140.7827,Gas
Australia,Lake Bonney Stage 1 Wind Farm,80.5,-37.7815,140.4058,Wind
Australia,Lake Bonney Stage 2 Wind Farm,159,-37.8149,140.4195,Wind
Australia,Lake Bonney Stage 3 Wind Farm,39,-37.7505,140.393,Wind
Australia,Lake Echo,32.4,-42.2537,146.6207,Hydro
Australia,Lake Glenmaggie,4,-37.9047,146.8011,Hydro
Australia,Lake Keepit,6.5,-30.8792,150.4914,Hydro
Australia,Lake William Hovell,2,-36.9129,146.3921,Hydro
Australia,Landfill Management Services Shoal Bay,1.1,-12.3892,130.9254,Waste
Australia,Laverton,1.5,-28.6216,122.3965,Oil
Australia,Laverton (Granny Smith Gold Mine),30.6,-28.8096,122.415,Oil
Australia,Laverton North,312,-37.8416,144.7887,Gas
Australia,Leichhardt,60,-20.7833,139.4862,Gas
Australia,Leinster Nickel Mine,59,-27.8141,120.699,Gas
Australia,Lemonthyme,81.6,-41.6038,146.139,Hydro
Australia,Leonards Hill,4.1,-37.4271,144.1222,Wind
Australia,Leonora,4.43,-28.8811,121.3213,Gas
Australia,Liapootah,87.3,-42.3763,146.5099,Hydro
Australia,Liddell,2200,-32.3713,150.9776,Coal
Australia,Liddell Solar Thermal,9.3,-32.3761,150.9797,Solar
Australia,Longford,31,-38.2236,147.1657,Gas
Australia,Lonsdale,20,-35.1097,138.491,Oil
Australia,Lower Lake Margaret,3.2,-42.0147,145.5261,Hydro
Australia,Lower Rubicon,13.55,-37.3027,145.8458,Hydro
Australia,Loy Yang A,2180,-38.2536,146.5746,Coal
Australia,Loy Yang B,1000,-38.2564,146.5864,Coal
Australia,Lucas Heights I,5.39,-34.0293,151.0021,Waste
Australia,Lucas Heights II,16,-34.0481,150.9739,Waste
Australia,Macarthur Wind Farm,420,-38.0075,142.1865,Wind
Australia,Mackay,30,-21.1446,149.1591,Gas
Australia,Mackintosh,79.9,-41.6997,145.6461,Hydro
Australia,Macknade Sugar Mill,8,-18.589,146.258,Biomass
Australia,Mandurah,1.3,-32.5079,115.759,Waste
Australia,Marble Bar Diesel Backup,1.28,-21.1649,119.7419,Oil
Australia,Maryborough,7.5,-25.5476,152.7171,Biomass
Australia,Maryvale Mill,54.5,-38.1809,146.4479,Biomass
Australia,McArthur River Mine,78,-16.4335,136.0935,Gas
Australia,McKay Creek (Mount Beauty Hydro Scheme),150,-36.8584,147.2345,Hydro
Australia,Meadowbank,40,-42.6112,146.8457,Hydro
Australia,Meekatharra,2.9,-26.5952,118.483,Oil
Australia,Melbourne,1.2,-37.8086,144.9685,Gas
Australia,Merredin,82,-31.5423,118.227,Gas
Australia,Mica Creek,325,-20.7777,139.4905,Gas
Australia,Mildura Solar Farm,1.5,-34.4671,142.1833,Solar
Australia,Millmerran,856,-27.9615,151.2789,Coal
Australia,Mintaro,90,-33.9031,138.7383,Gas
Australia,Moranbah,12.56,-21.9851,148.0246,Gas
Australia,Moranbah North,45.7,-21.8967,147.9507,Gas
Australia,Moree,60,-29.5722,149.8669,Solar
Australia,Mornington,1,-38.3916,144.8553,Waste
Australia,Mortlake,566,-38.0632,142.6675,Gas
Australia,Mortons Lane Wind Farm,20,-37.8413,142.4653,Wind
Australia,Mount Keith Nickel Mine,112,-27.2146,120.548,Gas
Australia,Mount Magnet,1.9,-28.0871,117.8327,Gas
Australia,Mount Millar Wind Farm,70,-33.6267,136.7046,Wind
Australia,Mount Stuart,423,-19.338,146.8512,Oil
Australia,Mt Gambier,10,-37.8388,140.8057,Biomass
Australia,Mt Mercer Wind Farm,131,-37.8432,143.8758,Wind
Australia,Mt Piper,1400,-33.3589,150.0313,Coal
Australia,Mugga Lane,3.5,-35.3953,149.1458,Waste
Australia,Muja A,120,-33.4467,116.3081,Coal
Australia,Muja B,120,-33.4468,116.3087,Coal
Australia,Muja C,400,-33.446,116.3062,Coal
Australia,Muja D,454,-33.4464,116.3074,Coal
Australia,Mulgrave,13,-17.0932,145.7887,Biomass
Australia,Mumbida Wind Farm,55,-28.9918,114.9599,Wind
Australia,Mungarra,112,-28.8893,115.1177,Gas
Australia,Mungullah,18,-24.8911,113.7095,Gas
Australia,Munmorah,600,-33.2117,151.5418,Coal
Australia,Murray 1,950,-36.2467,148.1901,Hydro
Australia,Murray 2,552,-36.2423,148.1362,Hydro
Australia,Murrin Murrin (Nickel Mine),78,-28.9238,121.3293,Gas
Australia,Musselroe,168,-40.7798,148.0097,Wind
Australia,Narrogin Bioenergy Plant,1,-32.9521,117.1916,Biomass
Australia,Neerabup,330,-31.6712,115.8021,Gas
Australia,Newman Iron Ore Mine,170,-23.3443,119.7086,Gas
Australia,Newport,500,-37.8415,144.8942,Gas
Australia,Nieterana,2.2,-42.2686,146.2629,Hydro
Australia,Nine Network,3.2,-33.811,151.1966,Oil
Australia,Noranda,1.1,-31.8654,115.8773,Waste
Australia,Norseman Mine,9,-32.1963,121.7943,Oil
Australia,North Brown Hill  Wind Farm,132.3,-33.3093,138.7296,Wind
Australia,North Sydney,2.4,-33.8398,151.2069,Gas
Australia,Northern,530,-32.5433,137.7882,Coal
Australia,Nymboida,33.6,-29.9257,152.7417,Hydro
Australia,Nyngan Solar Plant,102,-31.5527,147.0854,Solar
Australia,Oakey,282,-27.4184,151.6798,Gas
Australia,Oakland Hills Wind Farm,67,-37.6871,142.5467,Wind
Australia,Oaky,4.8,-30.5751,152.069,Hydro
Australia,Oaky Creek,20,-22.9878,148.5817,Gas
Australia,Onslow,3.6,-21.6582,115.099,Gas
Australia,Ord River,30,-16.1201,128.7383,Hydro
Australia,Osborne,180,-34.798,138.5079,Gas
Australia,Owen Springs,36,-23.8636,133.8255,Gas
Australia,Paloona,28,-41.2826,146.249,Hydro
Australia,Paraburdoo,155,-23.2233,117.6133,Gas
Australia,Paraburdoo (Standby),20,-23.2238,117.6137,Gas
Australia,Pedler Creek,3,-35.2023,138.5021,Waste
Australia,Pelican Point,478,-34.765,138.5053,Gas
Australia,Perth Zoo,2.37,-31.9767,115.8548,Solar
Australia,Pindari,6.7,-29.3886,151.2442,Hydro
Australia,Pine Creek,34.76,-13.7856,131.8624,Gas
Australia,Pinjar,576,-31.5568,115.8204,Gas
Australia,Pinjarra Bauxite Mine and Alumina Refinery,280,-32.6473,115.9469,Gas
Australia,Pioneer Sugar Mill,67.8,-19.5575,147.3308,Biomass
Australia,Plane Creek Sugar Mill,14,-21.4282,149.2159,Biomass
Australia,Plutonic Gold Mine,28,-25.311,119.4508,Gas
Australia,Poatina,100,-41.8116,146.919,Hydro
Australia,Port Hedland,84,-20.3782,118.5384,Gas
Australia,Port Hedland,126,-20.4283,118.5498,Gas
Australia,Port Lincoln,73.5,-34.7003,135.8044,Oil
Australia,Port Stanvac,57.6,-35.1104,138.4915,Oil
Australia,Proserpine Sugar Mill,17,-20.3985,148.5797,Biomass
Australia,Quarantine,224,-34.7793,138.5224,Gas
Australia,Racecourse Mill,3.5,-21.1635,149.1344,Biomass
Australia,Ravensthorpe,56,-33.61,120.36,Oil
Australia,Red Hill,3.65,-31.8317,116.0992,Waste
Australia,Redbank,150,-32.5802,151.0719,Coal
Australia,Reece,238,-41.7238,145.1359,Hydro
Australia,Remount,2.2,-41.395,147.1554,Waste
Australia,Repulse,28,-42.5077,146.647,Hydro
Australia,Revesby Workers Club,2.5,-33.9534,151.0137,Oil
Australia,Rochedale,4,-27.5591,153.1236,Waste
Australia,Rockingham,2.1,-32.2863,115.8154,Waste
Australia,Rocky Point Sugar Sugar Mill,30,-27.7334,153.3276,Biomass
Australia,Roghan Road,2,-27.3388,153.0343,Waste
Australia,Roma,80,-26.5772,148.8402,Gas
Australia,Ron Goodin,44.6,-23.7091,133.8912,Gas
Australia,Rowallan,10.5,-41.7295,146.2176,Hydro
Australia,Roy Hill,6,-22.4812,119.9472,Oil
Australia,Royalla Solar Farm,20,-35.49,149.1443,Wind
Australia,Rubicon,13.55,-37.3272,145.8605,Hydro
Australia,Savannah Nickel Mine,10.8,-17.3631,128.0331,Oil
Australia,Shenton Park WMRC Project,1,-31.9577,115.7924,Waste
Australia,Shepparton Biogas Generation Plant,1.1,-36.3218,145.379,Waste
Australia,Smithfield Energy,170.9,-33.85,150.9495,Gas
Australia,Snowtown North,148,-33.7215,138.1471,Wind
Australia,Snowtown South,126,-33.8302,138.1184,Wind
Australia,Snuggery,63,-37.6646,140.4156,Gas
Australia,Solomon Iron Ore Mine,125,-22.1581,117.9849,Gas
Australia,Somerton,160,-37.6318,144.9531,Gas
Australia,South Cardup (Shale Road Landfill),3.3,-32.2664,116.0193,Waste
Australia,South Johnstone,20,-17.6057,145.991,Biomass
Australia,Springvale,4.2,-37.9733,145.1396,Waste
Australia,St George Leagues Club,1,-33.9748,151.1294,Oil
Australia,Stanwell,1460,-23.5097,150.3195,Coal
Australia,Stapylton Green Energy,4.8,-27.7334,153.2463,Biomass
Australia,Starfish Hill Wind Farm,34.5,-35.5678,138.1432,Wind
Australia,Studland Bay (Woolnorth) Wind Farm,75,-40.7788,144.7362,Wind
Australia,Summerhill,2.2,-32.8885,151.643,Waste
Australia,Suncoast Gold Macadamia,1.5,-26.2261,152.6981,Biomass
Australia,Sunrise Dam,28.4,-29.0927,122.4393,Gas
Australia,Swanbank B,480,-27.6601,152.8145,Coal
Australia,Swanbank E,385,-27.6554,152.8179,Gas
Australia,Symex Port Melbourne,5.9,-37.8298,144.9444,Gas
Australia,Tableland,7,-17.1193,145.345,Biomass
Australia,Tahmoor,7,-34.2482,150.5808,Gas
Australia,Tallawarra,460,-34.5228,150.8081,Gas
Australia,Tamala Park,4.65,-31.7078,115.7266,Waste
Australia,Tamar Valley,390,-41.1401,146.9036,Gas
Australia,Tarong,15,-26.7858,151.9172,Oil
Australia,Tarong,1400,-26.7824,151.9153,Coal
Australia,Tarong North,443,-26.7758,151.9146,Coal
Australia,Tarraleah,90,-42.3012,146.4572,Hydro
Australia,Tatura Biogas Generation Plant,1.1,-36.4793,145.235,Waste
Australia,Tea Tree Gully,1,-34.8303,138.7129,Waste
Australia,Telfer Gold Mine,159,-21.7129,122.2091,Gas
Australia,Tennant Creek,16.7,-19.6549,134.1753,Gas
Australia,Teralba,3,-32.9455,151.6119,Gas
Australia,Terminal Storage,2.5,-34.8393,138.7112,Hydro
Australia,The Drop,3,-35.6043,145.7837,Hydro
Australia,Ti Tree Bioenergy,3.3,-27.6802,152.6593,Waste
Australia,Timber Creek,1,-15.6562,130.479,Oil
Australia,Tods Corner,1.7,-41.9707,146.7938,Hydro
Australia,Tomago Aluminium Smelter,810,-32.8217,151.7178,Gas
Australia,Toora Wind Farm,21,-38.6451,146.3441,Wind
Australia,Torrens Island A,480,-34.8068,138.5213,Gas
Australia,Torrens Island B,800,-34.8052,138.5226,Gas
Australia,Tower Mine,41.2,-34.2207,150.7179,Gas
Australia,Townsville,220,-19.2011,146.6187,Gas
Australia,Traralgon Network Support Station,10,-38.1793,146.5654,Waste
Australia,Trevallyn,80,-41.4226,147.1119,Hydro
Australia,Tribute,82.8,-41.8129,145.6538,Hydro
Australia,Tully Sugar Mill,21.4,-17.9373,145.9267,Biomass
Australia,Tumut 1 (Upper Tumut),616,-35.9517,148.3637,Hydro
Australia,Tumut 2 (Upper Tumut),336,-35.8814,148.3672,Hydro
Australia,Tumut 3,1500,-35.6112,148.2917,Hydro
Australia,Tungatinah,125,-42.2967,146.4565,Hydro
Australia,University of Queensland (St Lucia Campus) Solar Array,1.2,-27.495,153.0101,Solar
Australia,Upper Lake Margaret,8.4,-42.0046,145.5437,Hydro
Australia,Uranquinty,664,-35.1794,147.2157,Gas
Australia,Uterne Solar,1,-23.7685,133.8682,Solar
Australia,Vales Point B,1360,-33.1607,151.5431,Coal
Australia,Valley (Peaking Facility),300,-38.2536,146.5892,Gas
Australia,Victoria Sugar Mill,24,-18.6508,146.2016,Biomass
Australia,Visy Paper Gibson Island,2,-27.4405,153.1158,Biomass
Australia,Visy Pulp and Paper Tumut,20,-35.2959,148.1371,Biomass
Australia,Wadeye,6.8,-14.2602,129.5368,Gas
Australia,Wagerup,380,-32.916,115.9186,Gas
Australia,Wagerup Bauxite Mine and Alumina Refinery,98,-32.9145,115.917,Gas
Australia,Walkaway Wind Farm,90,-28.9229,114.9282,Wind
Australia,Wallerawang C,500,-33.4028,150.0833,Coal
Australia,Warmun,1.3,-17.0259,128.2113,Oil
Australia,Warragamba,50,-33.8832,150.5965,Hydro
Australia,Warrego,19,-19.4434,133.8236,Gas
Australia,Waterloo Wind Farm,111,-34.001,138.9109,Wind
Australia,Wattle Point Wind Farm,90.75,-35.1214,137.7166,Wind
Australia,Waubra Wind Farm,192,-37.3575,143.6037,Wind
Australia,Wayatinah,38.3,-42.4272,146.5347,Hydro
Australia,Weddell,86,-12.5771,130.9502,Gas
Australia,West Angelas Mine,86,-23.1546,118.7245,Gas
Australia,West Illawarra Leagues Club,1,-34.4515,150.8429,Oil
Australia,West Kalgoorlie,60,-30.7806,121.4234,Oil
Australia,West Kiewa (Mount Beauty Hydro Scheme),62,-36.7601,147.186,Hydro
Australia,West Nowra (Shoalhaven),1,-34.882,150.5515,Waste
Australia,Western Suburbs Leagues Club (Campbelltown),1,-34.0513,150.8329,Oil
Australia,Whitwood Road,1,-27.659,152.8237,Waste
Australia,Wilga Park,16,-30.3634,149.6772,Gas
Australia,Wilmot,81.6,-41.4833,146.1251,Hydro
Australia,Wilpena Solar Farm,145,-31.5234,138.6198,Solar
Australia,Wiluna,1.3,-26.5922,120.2185,Oil
Australia,Wiluna Gold Mine,21,-26.6316,120.2519,Gas
Australia,Windimurra Vanadium Mine,23.7,-28.2933,118.5371,Gas
Australia,Windy Hill Wind Farm,12,-17.5922,145.5306,Wind
Australia,Wingfield I,5,-34.8348,138.5572,Waste
Australia,Wingfield II,5,-34.8321,138.5489,Waste
Australia,Wivenhoe,4.7,-27.3952,152.6092,Hydro
Australia,Wivenhoe Hydroelectric,500,-27.3722,152.632,Hydro
Australia,Wodgina,13.7,-21.1739,118.6747,Gas
Australia,Wollert,6.738,-37.583,145.0487,Waste
Australia,Wonthaggi Wind Farm,12,-38.6037,145.5462,Wind
Australia,Woodlawn Bioreactor,7,-35.059,149.5769,Waste
Australia,Woodlawn Wind Farm,48,-35.0861,149.5716,Wind
Australia,Woodman Point,1.8,-32.1424,115.7713,Waste
Australia,Worsley,120,-33.2355,116.0688,Coal
Australia,Worsley Cogeneration,106,-33.2365,116.0637,Gas
Australia,Wyangala A,20,-33.981,148.9473,Hydro
Australia,Wyndham,1,-37.9375,144.5902,Waste
Australia,Yallourn,1480,-38.177,146.3428,Coal
Australia,Yambuk Wind Farm,30,-38.3079,142.0151,Wind
Australia,Yarrawonga,9,-36.0094,145.9995,Hydro
Australia,Yarwun,154,-23.8306,151.1519,Gas
Australia,Yulara,10.95,-25.2323,130.9912,Gas
Australia,Yurralyi Maya (Karratha Seven Mile),180,-20.762,116.742,Gas
Austria,Abwinden-Asten,168,48.248,14.4305,Hydro
Austria,Altenmarkt,26,46.7667,15.55,Hydro
Austria,Arnstein,30,47.0167,15.1667,Hydro
Austria,Aschach,287,48.3853,14.023,Hydro
Austria,Bischofshofen,16,47.407,13.2205,Hydro
Austria,Braunau-Simbach,100,48.244,13.006,Hydro
Austria,Dionysen,16,47.4167,15.2833,Hydro
Austria,Donaustadt,395,48.2,16.4633,Gas
Austria,Ering-Frauenstein,72,48.2194,13.16,Hydro
Austria,Erzbach,1,47.6,14.7333,Hydro
Austria,Feistritz-Ludmannsdorf,88,46.5347,14.1712,Hydro
Austria,Feldkirchen,38,46.8638,13.3355,Hydro
Austria,Ferlach Maria Rain,75,46.5462,14.2985,Hydro
Austria,Fisching,22,47.1667,14.7333,Hydro
Austria,Freudenau Danube,172,48.1764,16.4811,Hydro
Austria,Friesach,12,47.1667,15.3333,Hydro
Austria,Funsingau,25,47.2354,12.0583,Hydro
Austria,Gabersdorf,14,46.7772,15.5842,Hydro
Austria,Gaming,14,48.1766,16.4813,Hydro
Austria,Gerlos,200,47.2342,11.8997,Hydro
Austria,Gratkorn,11,47.1333,15.35,Hydro
Austria,Greifenstein,293,48.3553,16.2424,Hydro
Austria,Hieflau,63,47.6,14.7333,Hydro
Austria,Hieflau-Erzbach,1,47.6,14.7333,Hydro
Austria,Jochenstein,132,48.5184,13.7076,Hydro
Austria,KW Amlach,60,46.8142,12.7618,Hydro
Austria,KW Imst,89,47.2122,10.7215,Hydro
Austria,KW Jenbach,79,47.3932,11.7886,Hydro
Austria,KW Kaunertal,392,47.0678,10.6652,Hydro
Austria,KW Kühtai,289,47.2078,11.0057,Hydro
Austria,KW Silz,500,47.2696,10.9678,Hydro
Austria,Kaprun Limberg II,480,47.1985,12.7223,Hydro
Austria,Kaprun Oberstufe,113,47.1968,12.7192,Hydro
Austria,Kaprun main stage,240,47.2591,12.7389,Hydro
Austria,Kellerberg,25,46.67,13.6886,Hydro
Austria,Klammsee,1,47.2591,12.7389,Hydro
Austria,Klaus,20,47.8314,14.1572,Hydro
Austria,Kopswerk II,525,46.975,10.043,Hydro
Austria,Kreuzbergmaut,18,47.4412,13.2108,Hydro
Austria,Kreuzeck days storage,45,46.8727,13.3117,Hydro
Austria,Krippau,30,47.6833,14.7,Hydro
Austria,Landl,25,47.65,14.7167,Hydro
Austria,Laufnitzdorf,18,47.3,15.3167,Hydro
Austria,Lebring,20,46.8522,15.5383,Hydro
Austria,Leoben,10,47.3833,15.1,Hydro
Austria,Losenstein,39,47.9243,14.4367,Hydro
Austria,Low Tuxbach - Small power plant Stillupp,2,47.1485,11.8225,Hydro
Austria,Lünerseewerk,280,47.074,9.874,Hydro
Austria,Malta Secondary school,120,47.0659,13.3539,Hydro
Austria,Malta main stage,730,47.0659,13.3539,Hydro
Austria,Mandling,6,47.4,13.5667,Hydro
Austria,Mayrhofen,355,47.1581,11.8501,Hydro
Austria,Melk,187,48.2232,15.3042,Hydro
Austria,Mellach run power plant,16,46.8833,15.5167,Hydro
Austria,Neuötting,26.1,40.1247,-8.7751,Hydro
Austria,Niklai,2,46.8167,13.3167,Hydro
Austria,Nussdorf near Vienna,5,47.2167,14.4833,Hydro
Austria,Oberaudorf Ebbs,60,47.6413,12.1989,Hydro
Austria,Obervermuntwerk,30,46.9271,10.0539,Hydro
Austria,Obervogau,13,46.745,15.5847,Hydro
Austria,Ottensheim-Wilhering,179,48.3166,14.1512,Hydro
Austria,Passau-Ingling,86,48.5536,13.4371,Hydro
Austria,Paternion,24,46.7209,13.6453,Hydro
Austria,Peggau,13,47.2,15.35,Hydro
Austria,Pernegg,22,47.3598,15.3424,Hydro
Austria,Pichlern,2,47.65,13.6667,Hydro
Austria,Rabenstein,14,47.35,13.6833,Hydro
Austria,Retznei,1,46.7333,15.5667,Hydro
Austria,Rodundwerk I,198,47.085,9.8813,Hydro
Austria,Rodundwerk II,295,47.0847,9.8744,Hydro
Austria,Rosegg-St. James,80,46.5696,14.0268,Hydro
Austria,Rosenau,34,48.489,14.6288,Hydro
Austria,Schonau,30,48.3946,14.7302,Hydro
Austria,Schwabeck,79,46.658,14.8726,Hydro
Austria,Schwarzach,120,47.3152,13.1389,Hydro
Austria,Simmering,1272,48.1815,16.4334,Gas
Austria,St. Georgen,6,47.5333,14.3667,Hydro
Austria,St. Johann,16,47.3386,13.1974,Hydro
Austria,St. Martin,10,47.4467,15.2849,Hydro
Austria,St. Pantaleon,52,48.0076,12.8942,Hydro
Austria,St. Veit,16,47.3214,13.1744,Hydro
Austria,Staning,43,48.1007,14.4568,Hydro
Austria,Steinfeld,1,46.7656,13.2717,Hydro
Austria,Ternberg,40,47.9333,14.35,Hydro
Austria,Timelkam,400,48.0122,13.5895,Gas
Austria,Triebenbach,10,47.5,14.4667,Hydro
Austria,Tuxbach,1,47.1485,11.8225,Hydro
Austria,Urreiting,16,47.3749,13.2101,Hydro
Austria,Vermuntwerk,157,46.9684,10.0599,Hydro
Austria,Vienna-Freudenau,172,48.1766,16.4814,Hydro
Austria,Villach,25,46.6329,13.8294,Hydro
Austria,Walgauwerk,86,47.192,9.6815,Hydro
Austria,Wallnerau Salzach stage,13,47.316,13.141,Hydro
Austria,Wallnerau underwater stage,5,47.3833,12.6,Hydro
Austria,Wallsee-Mitterkirchen,210,48.1666,14.6953,Hydro
Austria,Weissenegg,1,46.8167,15.8667,Hydro
Austria,Werfen-Pfarrwerfen,16,47.4698,13.1945,Hydro
Austria,Weyer,37,48.1465,14.1176,Hydro
Austria,Wind Park Bruck an der Leitha,9,48.0338,16.7264,Wind
Austria,Wind Park Hollern II,37,48.09,16.844,Wind
Austria,Wind Park Petronell-Carnuntum II,21,48.09,16.844,Wind
Austria,Windpark Bruck-Göttlesbrunn,21,48.095,16.89,Wind
Austria,Ybbs-Persenbeug,236,48.1892,15.0682,Hydro
Azerbaijan,Astara ES,87,38.456,48.875,Gas
Azerbaijan,Azerbaijan TPP,2400,40.78,46.9901,Oil
Azerbaijan,Baku ES,105,40.3734,49.9192,Gas
Azerbaijan,Baku TEC,107,40.3734,49.9192,Gas
Azerbaijan,Gusar,1,41.3979,48.3308,Hydro
Azerbaijan,Janub,780,39.8943,48.9173,Gas
Azerbaijan,Khachmaz ES,87,41.4635,48.806,Gas
Azerbaijan,Mingechevir,402,40.79,47.0287,Hydro
Azerbaijan,Sangachal ES,299,40.1794,49.47,Gas
Azerbaijan,Shamkir,405,40.9487,46.168,Hydro
Azerbaijan,Shimal,400,40.4995,50.2077,Gas
Azerbaijan,Sumqayit,525,40.6036,49.6332,Gas
Azerbaijan,Varvara,16,40.6837,47.0926,Hydro
Azerbaijan,Yenikend,150,40.9193,46.2829,Hydro
Bahrain,Al Dur Power and Water,1540,25.9714,50.6076,Gas
Bahrain,Al Ezzel Power Station,962,26.2175,50.6595,Gas
Bahrain,Alba Power Station,2204,26.0945,50.6008,Gas
Bahrain,Hawar Power ad Water Station,7.3,26.1981,50.5919,Oil
Bahrain,Hidd Power and Water station 1,963,26.2223,50.6621,Gas
Bahrain,Rifa'a Power Station,700,26.1199,50.5889,Gas
Bahrain,Sitra Power an Water Station,1205,26.1833,50.6237,Gas
Bangladesh,Amnura,50,24.6301,88.4006,Oil
Bangladesh,Ashuganj (Aggreko),1649,24.0426,91.0158,Gas
Bangladesh,Baghabari GT 1,223,24.1361,89.5933,Gas
Bangladesh,Barabkunda (Regent),22,22.5713,91.6841,Oil
Bangladesh,Barishal GT-unit-1 2,40,22.6588,90.3373,Gas
Bangladesh,Barupukuria ST 1,250,25.5502,88.9527,Coal
Bangladesh,Bera Peaking,71,24.0895,89.6176,Oil
Bangladesh,Bheramara GT (Unit-1 2 3),560,24.0487,89.0173,Oil
Bangladesh,Bhola CCPP GT-1 2 ST,227,22.4786,90.7101,Gas
Bangladesh,Bogra GBB,42,24.8408,89.3506,Gas
Bangladesh,CLCPC Keranigonj,100,23.6473,90.3473,Oil
Bangladesh,Chittagong Roazan,553,22.457,91.9784,Gas
Bangladesh,Faridpur,54,23.6183,89.7733,Oil
Bangladesh,Fenchuganj (Barakatullah),296,24.6863,91.9189,Gas
Bangladesh,Feni (Doreen),33,23.9186,90.6926,Gas
Bangladesh,Ghorasal ST :Unit-3,861,23.9797,90.637,Gas
Bangladesh,Gopalganj Peaking,109,23.9797,90.637,Oil
Bangladesh,Hathazari,98,22.4918,91.8051,Oil
Bangladesh,Hobiganj (Confidence-EP),11,24.2639,91.379,Gas
Bangladesh,Horippur Power CCPP,946,23.6839,90.5314,Gas
Bangladesh,Jamalpur RPP,95,24.9103,89.9607,Oil
Bangladesh,Jangalia (Summit),85,23.4289,91.17,Gas
Bangladesh,Jhulda,100,22.2972,91.8062,Oil
Bangladesh,Kaptai Hydro:Unit-1 2 3 4 5,230,22.495,92.216,Hydro
Bangladesh,Karanigonj (Powerpac),100,23.6783,90.4295,Oil
Bangladesh,Katakhali (Peaking),100,24.366,88.6763,Oil
Bangladesh,Kathpotti 52 mw,52,23.5699,90.4804,Oil
Bangladesh,Khulna (KPCL-2),510,22.8646,89.5357,Gas
Bangladesh,Kodda Gajipur,149,23.9904,90.3429,Oil
Bangladesh,Madanganj (Summit),157,23.59,90.5153,Oil
Bangladesh,Meghnaghat CCPP,855,23.6112,90.6007,Gas
Bangladesh,Mymensingh,210,24.7611,90.4193,Gas
Bangladesh,Narshingdi (Doreen),22,23.9186,90.6926,Oil
Bangladesh,Noapara (khanjahan ali),40,22.3602,91.7812,Oil
Bangladesh,Northen 55 MW,55,23.8094,90.2433,Oil
Bangladesh,Pagla (DPA),50,23.6584,90.4584,Oil
Bangladesh,Patenga 50 MW,50,22.2385,91.8129,Oil
Bangladesh,Rangpur GT,20,25.7233,89.2432,Oil
Bangladesh,Santahar Peaking,50,24.7972,88.9839,Oil
Bangladesh,Shahjibazar 330 MW,536,24.2532,91.3751,Gas
Bangladesh,Shiddirganj ST,210,23.6846,90.517,Gas
Bangladesh,Shikalbaha Peaking (GT),261,22.3227,91.8651,Oil
Bangladesh,Siddhirganj (Dutch Bangla),520,24.3884,89.7436,Gas
Bangladesh,Siddirgonj (Desh),96,23.6825,90.5252,Oil
Bangladesh,Summit Barisal 110MW,110,22.659,90.3364,Gas
Bangladesh,Summit Bibiana-2,341,24.6358,91.6587,Gas
Bangladesh,Summit Power  Comilla,25,23.44,91.1869,Gas
Bangladesh,Summit Power  Maona,33,24.2276,90.4201,Gas
Bangladesh,Summit Power (Madhabdi+Ashulia),80,23.8901,90.0323,Gas
Bangladesh,Summit Power Rupgonj,33,23.755,90.5496,Gas
Bangladesh,Sylhet (Energyprima),222,24.9096,91.83,Gas
Bangladesh,Thakurgaon (RZ),47,26.0383,88.4256,Oil
Bangladesh,Titas(Dautkandi),52,23.5461,90.7779,Oil
Bangladesh,Tongi GT,105,23.897,90.4123,Gas
Bangladesh,Ullapara (Summit),11,24.3071,89.5512,Gas
Belarus,Bereza SDPP Thermal Power Plant Belarus,1130,52.4538,25.1926,Gas
Belarus,Bobruisk CHP-2 Power Plant Belarus,180,53.1895,29.2055,Gas
Belarus,Gomel-1 CHP Power Plant Belarus,6,52.4141,31.0031,Gas
Belarus,Gomel-2 CHP Power Plant Belarus,544,52.4492,30.8167,Gas
Belarus,Grodno CHP-2 Power Plant Belarus,180,53.6675,23.9272,Gas
Belarus,Lida Power Plant Belarus,43,53.9011,25.291,Gas
Belarus,Lukoml Thermal Power Plant Belarus,2460,54.6803,29.1341,Gas
Belarus,Minsk-3 CHP CCGT Power Plant,542,53.8799,27.6476,Gas
Belarus,Minsk-4 CHP CCGT Power Plant,1035,53.872,27.4022,Gas
Belarus,Minsk-5 CHP CCGT Power Plant,780,53.612,27.954,Gas
Belarus,Mogilev CHP-2 Thermal Power Plant Ukraine,345,53.8128,30.3421,Gas
Belarus,Mozyr Thermal Power Plant Belarus,195,51.9049,29.3136,Gas
Belarus,Novopolotsk Thermal Power Plant Belarus,505,55.5265,28.549,Gas
Belarus,Orsha Cogeneration CCGT Power Plant Belarus,73,54.4809,30.3926,Gas
Belarus,Svetlogorsk CHP Power Plant Belarus,155,52.6274,29.7708,Gas
Belarus,Vitebsk Thermal Power Plant Belarus,75,55.1689,30.1355,Gas
Belarus,Zhodino CHP CCGT Power Plant,54,54.0941,28.3505,Gas
Belgium,AALTER TJ,18.6,51.0902,3.4469,Oil
Belgium,ANGLEUR TG 41,128,50.6177,5.5837,Gas
Belgium,AWIRS 4,95,50.5851,5.418,Biomass
Belgium,Aalst Syral GT,43,50.936,4.0355,Gas
Belgium,Aalst Syral ST,5,50.936,4.0355,Gas
Belgium,Amercoeur 1 R TGV,451,50.4304,4.3955,Gas
Belgium,Aspiravi Wuustwezel,22.1,51.2488,3.2166,Wind
Belgium,BEERSE TJ,33.2,51.3193,4.853,Oil
Belgium,BUDA TJ,18.6,50.9079,4.4155,Oil
Belgium,BUTGENBACH,1.8,50.4359,6.2106,Hydro
Belgium,Belwind Phase 1,171,51.66,2.8,Wind
Belgium,Beveren 2 Indaver,20,51.2119,4.2563,Waste
Belgium,Beveren Ineos Phenolchemie,22.8,51.2119,4.2563,Gas
Belgium,CIERREUX TJ,18.6,50.2444,5.9302,Oil
Belgium,COO,1164,50.3849,5.8618,Hydro
Belgium,DOEL 4,2910,51.3254,4.2597,Nuclear
Belgium,DROGENBOS DM 51,5,50.8023,4.299,Gas
Belgium,DROGENBOS GT0,48,50.8023,4.299,Gas
Belgium,DROGENBOS TGV,465,50.8023,4.299,Gas
Belgium,Deux-Acren TJ,18.6,50.7303,3.8531,Oil
Belgium,Electrawinds biomassa Oostende,17.9,51.2234,2.9119,Waste
Belgium,Froidchapelle Wind,25,50.2233,4.32,Wind
Belgium,HAM-GENT WKK,52,51.05,3.7167,Gas
Belgium,HEID-DE-GOREUX 1,8,50.426,5.7328,Hydro
Belgium,HERDERSBRUG STEG,465,51.2629,3.2112,Gas
Belgium,HERDERSBRUG WIND,3,51.2622,3.2132,Wind
Belgium,HU AMPSIN-NEUVILLE,9.9,50.5335,5.2962,Hydro
Belgium,HU ANDENNE,9,50.4928,5.07,Hydro
Belgium,HU GRAND-MALADES,5,50.4665,4.8992,Hydro
Belgium,HU IVOZ-RAMET,10,50.5922,5.4613,Hydro
Belgium,HU LIXHE,20,50.7517,5.6863,Hydro
Belgium,HU MONSIN,19.7,50.6517,5.6308,Hydro
Belgium,INESCO WKK,138,51.2198,4.3266,Gas
Belgium,IVBO,16,51.2089,3.2242,Waste
Belgium,Incinerateur THUMAIDE (IPALLE),32,50.5415,3.6301,Waste
Belgium,Intradel Herstal,32,50.6642,5.6235,Waste
Belgium,LANGERBRUGGE STORA ST 2,50,51.05,3.7167,Waste
Belgium,LANGERLO 1,470,50.9405,5.4906,Coal
Belgium,LANGERLO 4 REPOWERING,86,50.934,5.4784,Gas
Belgium,La Vierre,1.9,49.733,5.377,Hydro
Belgium,Marcinelle Energie (Carsid),405,50.4138,4.4067,Gas
Belgium,Noordschote TJ,18.6,50.9548,2.8103,Oil
Belgium,Northwind,216,51.6186,2.8998,Wind
Belgium,PLATE TAILLE T,144,50.1884,4.3861,Hydro
Belgium,RINGVAART STEG,357,51.1049,3.7257,Gas
Belgium,RODENHUIZE 4,268,51.1341,3.777,Biomass
Belgium,RODENHUIZE WIND,4.5,51.1357,3.7878,Wind
Belgium,SAINT-GHISLAIN STEG,350,50.4719,3.8248,Gas
Belgium,SCHELLE WIND,4.5,51.1265,4.3226,Wind
Belgium,Schaerbeek Siomab ST1,45,50.8504,4.3488,Waste
Belgium,T-power Beringen,422,51.0586,5.1056,Gas
Belgium,TIHANGE 1N,962,50.5342,5.2751,Nuclear
Belgium,TIHANGE 3,2053.8,50.5342,5.2751,Nuclear
Belgium,Thorntonbank - C-Power - Area NE,147.6,51.556,2.9689,Wind
Belgium,Thorntonbank - C-Power - Area SW,177.6,51.54,2.921,Wind
Belgium,WM Park Powerport Zeebrugge,12,51.329,3.1819,Wind
Belgium,Wilrijk Isvag,10.5,51.1673,4.3951,Waste
Belgium,Windvision Estinnes WIND,80,50.4116,4.0804,Wind
Belgium,ZEEBRUGGE WIND,12,51.3596,3.2219,Wind
Belgium,Zedelgem TJ,18.6,51.1424,3.1368,Oil
Belgium,Zeebrugge 2 Fluxys,40,51.329,3.1819,Gas
Belgium,Zeebrugge TJ,18.6,51.329,3.1819,Oil
Belgium,Zelzate 2 Knippegroen,315,51.1587,3.8068,Gas
Belgium,Zelzate TJ,18.6,51.1896,3.8078,Oil
Belgium,Zwijndrecht Lanxess GT,43,51.2382,4.3408,Gas
Belgium,Zwijndrecht Lanxess ST,15,51.2382,4.3408,Gas
Benin,Akpakpa,40.5,6.3506,2.4295,Gas
Benin,Cotonou,20,6.4263,2.3066,Oil
Bhutan,Basochhu Hydroelectric Power Plant Bhutan,64,27.4254,89.9043,Hydro
Bhutan,Chhukha Hydroelectric Power Plant Bhutan,336,27.1104,89.5313,Hydro
Bhutan,Kurichhu Hydro-electric Power Station Bhutan,60,27.2162,91.2035,Hydro
Bhutan,Rangjung Small Hydroelectric Power Plant Bhutan,2.2,27.3567,91.6497,Hydro
Bhutan,Tala Hydroelectric Power Plant Bhutan,1020,27.036,89.5953,Hydro
Bolivia,Aranjuez Power Plant Bolivia,36.7,-19.0394,-65.2697,Gas
Bolivia,Botijlaca Hydroelectric Power Plant Bolivia,10.6,-16.1925,-68.1405,Hydro
Bolivia,Bulo Bulo OCGT Power Plant Bolivia,90,-17.2424,-64.5409,Gas
Bolivia,Cahua Hydroelectric Power Plant Bolivia,30,-16.0456,-67.9939,Hydro
Bolivia,Carrasco OCGT Power Plant Bolivia,152.6,-17.2125,-64.5275,Gas
Bolivia,Chojlla Hydroelectric Power Plant Bolivia,38.4,-16.4124,-67.7725,Hydro
Bolivia,Chururaqui Hydroelectric Power Plant Bolivia,34,-16.105,-68.067,Hydro
Bolivia,Corani Hydroelectric Power Plant Bolivia,54,-17.2122,-65.8758,Hydro
Bolivia,Cutichucho Hydroelectric Power Plant Bolivia,24,-16.1425,-68.1158,Hydro
Bolivia,El Alto (El Kenko) Power Plant Bolivia,80.42,-16.5653,-68.1811,Gas
Bolivia,Entre Rios Power Plant Bolivia,120,-21.52,-64.1714,Gas
Bolivia,Guaracachi CCGT Power Plant Bolivia,350,-17.7875,-63.1521,Gas
Bolivia,Harca Hydroelectric Power Plant Bolivia,30,-16.0784,-68.0336,Hydro
Bolivia,Huaji Hydroelectric Power Plant Bolivia,34,-16.0416,-67.9566,Hydro
Bolivia,Karachipampa Power Plant Bolivia,14.4,-19.551,-65.722,Gas
Bolivia,Sainani Hydroelectric Power Plant Bolivia,11,-16.124,-68.09,Hydro
Bolivia,Santa Cruz Power Plant Bolivia,42.3,-17.7549,-63.1398,Gas
Bolivia,Santa Isabel Hydroelectric Power Plant Bolivia,93.4,-17.1916,-65.8232,Hydro
Bolivia,Santa Rosa Hydroelectric Power Plant Bolivia,18,-16.1318,-68.1095,Hydro
Bolivia,Tiquimani Hydroelectric Power Plant Bolivia,9.6,-16.2072,-68.1235,Hydro
Bolivia,Valle Hermoso Power Plant Bolivia,167,-17.4302,-66.1169,Gas
Bolivia,Yanacachi Norte Hydroelectric Power Plant Bolivia,51.1,-16.3887,-67.7373,Hydro
Bolivia,Zongo Hydroelectric Power Plant Bolivia,11,-16.2719,-68.1227,Hydro
Bosnia and Herz.,Bocac Hydroelectric Power Plant Bosnia and Herzegovina,110,44.5075,17.1618,Hydro
Bosnia and Herz.,Capljina Pumped Storage Power Plant Bosnia and Herzegovina,420,43.0133,17.8041,Hydro
Bosnia and Herz.,Dubrovnik Hydroelectric Power Plant Bosnia and Herzegovina,216,42.6037,18.2357,Hydro
Bosnia and Herz.,Gacko Coal CHP Power Plant Bosnia and Herzegovina,300,43.1724,18.5128,Coal
Bosnia and Herz.,Grabovica Hydroelectric Power Plant Bosnia and Herzegovina,115,43.5872,17.7189,Hydro
Bosnia and Herz.,Jablanica Hydroelectric Power Plant Bosnia and Herzegovina,180,43.6924,17.7325,Hydro
Bosnia and Herz.,Jajce I Hidroelektrana Bosnia and Herzegovina,48,44.3774,17.2816,Hydro
Bosnia and Herz.,Jajce II Hidroelektrana Bosnia and Herzegovin,30,44.4279,17.2404,Hydro
Bosnia and Herz.,Kakanj CHP Power Plant Bosnia and Herzegovina,450,44.0899,18.1143,Coal
Bosnia and Herz.,Krupa Hydroelectric Power Plant Bosnia and Herzegovina,48.5,44.5624,17.135,Hydro
Bosnia and Herz.,Mostar Hydroelectric Power Plant Bosnia and Herzegovina,75,43.3776,17.8449,Hydro
Bosnia and Herz.,Mostarsko Blato Hydroelectric Power Plant Bosnia and Herzegovina,60,43.2989,17.794,Hydro
Bosnia and Herz.,Pec Mlini Hydroelectric Power Plant Bosnia and Herzegovina,30,43.3375,17.3261,Hydro
Bosnia and Herz.,Rama Hydroelectric Power Plant Bosnia and Herzegovina,160,43.747,17.6758,Hydro
Bosnia and Herz.,Salakovac Hydroelectric Power Plant Bosnia and Herzegovina,210,43.4478,17.8369,Hydro
Bosnia and Herz.,Trebinje I Hydroelectric Power Plant Bosnia and Herzegovina,180,42.7338,18.4971,Hydro
Bosnia and Herz.,Trebinje II Hydroelectric Power Plant Bosnia and Herzegovina,8,42.7066,18.3805,Hydro
Bosnia and Herz.,Tuzla CHP Power Plant Bosnia and Herzegovina,730,44.5215,18.6056,Coal
Bosnia and Herz.,Ugljevik CHP Coal Power Plant Bosnia and Herzegovina,300,44.6829,18.9671,Coal
Bosnia and Herz.,Visegrad Hydroelectric Power Plant Bosnia and Herzegovina,315,43.7603,19.2891,Hydro
Botswana,Morpule,732,-22.5223,27.0491,Coal
Botswana,Sua Pan Soda Ash,14,-21.1667,27.5167,Coal
Brazil,14 de Julho,100.71,-29.0648,-51.6749,Hydro
Brazil,3M Itapetininga,3.84,-23.5927,-48.0901,Oil
Brazil,3M Sumaré,6.4,-22.8152,-47.1781,Oil
Brazil,AJ Rorato,2.19,-23.9277,-52.4869,Oil
Brazil,ALLIANZ PARQUE,3.8744,-23.5218,-46.6691,Oil
Brazil,AMBEV - João Pessoa,1.35,-7.111,-34.8536,Oil
Brazil,ANHANGUERA EDUCACIONAL SA - CAMPO GRANDE,2.16,-20.4633,-54.5918,Oil
Brazil,AREVALE,2,-22.8877,-45.3275,Biomass
Brazil,ARS,6.66,-13.0992,-54.8189,Hydro
Brazil,AVG I-II,4.8,-19.4632,-44.2871,Biomass
Brazil,Abatedouro São Salvador,3.688,-16.0044,-49.7867,Oil
Brazil,Abranjo I,4.86,-30.7944,-52.6272,Hydro
Brazil,Abrasa,1.46,-26.7712,-52.1902,Hydro
Brazil,Abunã,3.18,-9.6868,-65.3633,Oil
Brazil,Adria,2.04,-21.251,-48.3125,Oil
Brazil,Adriana Agrícola,1.46,-16.9399,-53.5185,Oil
Brazil,Aeroporto Internacional Eduardo Gomes,1.008,-3.0293,-60.0239,Oil
Brazil,Aeroporto Internacional Pinto Martins - Terminal de Passageiros (TPS-1),1.08,-3.7737,-38.5321,Oil
Brazil,Aeroporto Internacional Salgado Filho,2.704,-30.029,-51.2205,Oil
Brazil,Aeroporto Internacional Tancredo Neves,2.2,-19.6371,-43.9625,Oil
Brazil,Aeroporto Internacional de Brasília,2.42,-15.8627,-47.9072,Oil
Brazil,Aeroporto Internacional de Congonhas - São Paulo,2.273,-23.6234,-46.6464,Oil
Brazil,Aeroporto Internacional de Rio Branco,1.032,-9.8627,-67.8905,Oil
Brazil,Aeroporto Internacional de Salvador,2.023,-12.9041,-38.3153,Oil
Brazil,Aeroporto Internacional de São Paulo/Guarulhos-Central Elétrica de Emergência CEE,9.6,-23.4293,-46.4571,Oil
Brazil,Aeroporto Internacional de Viracopos - Campinas,3.865,-23.0029,-47.1249,Oil
Brazil,Aeroporto Internacional do Recife,2.368,-8.1297,-34.9085,Oil
Brazil,Agostinho Rodrigues,1.3005,-20.2617,-43.7981,Hydro
Brazil,Agro Trafo,14.683,-11.675,-46.6722,Hydro
Brazil,Agroalcool,1.2,-20.6583,-49.8415,Biomass
Brazil,Agropéu,21.6,-19.2517,-44.985,Biomass
Brazil,Agrovale,14,-9.4938,-40.3564,Biomass
Brazil,Agudo,3.9,-27.5247,-51.5067,Hydro
Brazil,Agudos Ambev,4.8,-22.465,-48.9785,Oil
Brazil,Aguti,3.893,-27.3156,-49.0858,Hydro
Brazil,Ahlstrom,1.3,-23.082,-46.9415,Gas
Brazil,Aimorés,330,-19.4983,-41.0236,Hydro
Brazil,Ala Polo,1.456,-23.6461,-46.6386,Oil
Brazil,Albano Machado,3,-27.4967,-52.8036,Hydro
Brazil,Albatroz,4.8,-6.5475,-34.968,Wind
Brazil,Albertina,4.25,-21.0335,-47.9605,Biomass
Brazil,Albrás,4.96,-1.502,-48.6165,Oil
Brazil,Alcoa Beneficiamento,9.828,-2.506,-56.1625,Oil
Brazil,Alcoa Porto,5.644,-2.172,-56.1635,Oil
Brazil,Alcomira,2.4,-21.1971,-51.2083,Biomass
Brazil,Alcon,11.2,-18.4533,-39.9358,Biomass
Brazil,Alcon Laboratórios do Brasil,1.265,-23.5435,-46.6266,Oil
Brazil,Alcoolvale,4.2,-20.0833,-51.2895,Biomass
Brazil,Alcídia,38.1,-22.3457,-52.5145,Biomass
Brazil,Alecrim,72,-24.0814,-47.5067,Hydro
Brazil,Alegre,2.056,-20.7672,-41.5306,Hydro
Brazil,Alegria I,51,-5.0944,-36.3629,Wind
Brazil,Alegria II,100.65,-5.1243,-36.3833,Wind
Brazil,Alhandra,6.3,-7.2731,-34.9344,Wind
Brazil,Almirante Álvaro Alberto - Unidade I (Antiga Angra I),640,-23.0087,-44.4574,Nuclear
Brazil,Almirante Álvaro Alberto - Unidade II (Antiga Angra II),1350,-23.0072,-44.4588,Nuclear
Brazil,Alta Floresta,5,-11.9319,-62.0425,Hydro
Brazil,Alta Mogiana,75,-20.4819,-47.8662,Biomass
Brazil,Altero Design,2.032,-29.6341,-50.9975,Oil
Brazil,Alterosa,8,-19.8563,-44.5989,Oil
Brazil,Alto Benedito Novo,2.544,-26.7819,-49.3972,Hydro
Brazil,Alto Benedito Novo I,15,-26.7667,-49.4333,Hydro
Brazil,Alto Brejaúba,1.35,-18.9011,-42.446,Hydro
Brazil,Alto Fêmeas I,10.649,-12.45,-45.2,Hydro
Brazil,Alto Irani,21,-27.0094,-52.4303,Hydro
Brazil,Alto Jatapu,5,0.9,-59.3333,Hydro
Brazil,Alto Paraguai (Pedro Pedrossian),1.68,-14.5069,-56.4025,Hydro
Brazil,Alto Sucuriú,29,-19.245,-52.8994,Hydro
Brazil,Altos,13.12,-5.0321,-42.4358,Oil
Brazil,Alumar,75.2,-2.7028,-44.3415,Coal
Brazil,Alunorte,103.854,-1.5374,-48.723,Coal
Brazil,Alvarães,3.18,-3.2293,-64.7739,Oil
Brazil,Alvorada,8,-21.3049,-46.8541,Biomass
Brazil,Alvorada,8,-14.1852,-42.5911,Wind
Brazil,Amador Aguiar I (Antiga Capim Branco I),243.675,-18.7903,-48.1472,Hydro
Brazil,Amador Aguiar II (Antiga Capim Branco II),210,-18.6597,-48.4353,Hydro
Brazil,Amandina,120,-22.4341,-53.5685,Biomass
Brazil,Amapá Garden Shopping,4.6,0.0124,-51.072,Oil
Brazil,Amaturá,1.92,-3.3668,-68.1866,Oil
Brazil,Ambient,1.5,-21.1008,-47.8035,Waste
Brazil,Americana,30,-22.699,-47.2842,Hydro
Brazil,Ametista,28.56,-14.172,-42.7002,Wind
Brazil,Amparo,22.5,-26.6183,-51.5646,Wind
Brazil,Anagé,1,-14.6286,-41.1889,Hydro
Brazil,Anamã,1.299,-3.5514,-61.4128,Gas
Brazil,Angelina (Antiga Portobello - Corredeira do Encano),26.29,-27.4547,-48.9828,Hydro
Brazil,Angical,12.95,-14.3461,-42.6137,Wind
Brazil,Angélica,96,-22.1522,-53.7618,Biomass
Brazil,Anhanguera,22.68,-20.4667,-47.8667,Hydro
Brazil,Anna Maria,1.68,-21.4858,-43.4539,Hydro
Brazil,Anori,2.742,-3.7068,-61.6518,Gas
Brazil,Antunes,1,-27.6497,-51.195,Hydro
Brazil,Antônio Brennand (Antiga  Alto Jauru),21.96,-15.0472,-58.7517,Hydro
Brazil,Antônio Dias,1.35,-19.6047,-42.8583,Hydro
Brazil,Antônio Viel,2.9028,-27.2714,-51.5481,Hydro
Brazil,Aparecida Parte I,240.74,-3.1257,-60.0233,Oil
Brazil,Aparecida Parte II,8.4,-3.1257,-60.0233,Oil
Brazil,Aparecida Parte III,2.4,-3.1257,-60.0281,Oil
Brazil,Apiacás,3.148,-9.5527,-57.3722,Oil
Brazil,Apiaí,1,-24.4789,-49.0636,Hydro
Brazil,Apolônio Sales (Antiga Moxotó),400,-9.3575,-38.2083,Hydro
Brazil,Aporé,1,-18.6805,-52.5842,Hydro
Brazil,Apuí,5,-7.1985,-59.8775,Oil
Brazil,Aquarius,4.2,-17.6167,-54.9167,Hydro
Brazil,Aquibatã,30,-26.5848,-51.7532,Wind
Brazil,Aracati,11.48,-4.5491,-37.7605,Oil
Brazil,Aracruz,210.4,-19.843,-40.0747,Biomass
Brazil,Araguaia Shopping,2.4,-16.639,-49.2653,Oil
Brazil,Araguassu,1.2,-10.874,-51.6235,Biomass
Brazil,Aralco,4.8,-20.9045,-50.4015,Biomass
Brazil,Araras DPA,1.28,-22.3661,-47.3713,Oil
Brazil,Araras Nescafé,1.052,-22.3622,-47.3715,Oil
Brazil,Aratuá I,14.4,-5.0919,-36.3377,Wind
Brazil,Araucária,484.15,-25.5843,-49.3464,Gas
Brazil,Areal,18,-22.2333,-43.0833,Hydro
Brazil,Areal,5.14917,-22.1561,-44.0875,Hydro
Brazil,Areia,11.4,-11.6986,-46.7361,Hydro
Brazil,Areia Branca,27.3,-4.9686,-36.9009,Wind
Brazil,Areia Branca,19.8,-19.5761,-41.8028,Hydro
Brazil,Arembepe (Antiga Camaçari Pólo de Apoio I),150,-12.6863,-38.2925,Oil
Brazil,Arizona 1,28,-5.3042,-35.382,Wind
Brazil,Arroio Trinta,1,-26.88,-51.2797,Hydro
Brazil,Arrudas,2.4,-19.8953,-43.8783,Waste
Brazil,Artivinco (Antiga Rio Pardo),4.5,-21.4998,-47.3568,Biomass
Brazil,Arturo Andreoli (Antiga Júlio de Mesquita Filho),29.072,-25.5681,-53.0742,Hydro
Brazil,Arvoredo,13,-27.0667,-52.4833,Hydro
Brazil,Asa Branca I,27,-5.2323,-35.8266,Wind
Brazil,Asa Branca II,27,-5.2286,-35.8808,Wind
Brazil,Asa Branca III,27,-5.2551,-35.8436,Wind
Brazil,Asa Branca IV,32,-5.3291,-35.9916,Wind
Brazil,Asa Branca V,32,-5.3828,-36.0088,Wind
Brazil,Asa Branca VI,32,-5.3596,-35.9987,Wind
Brazil,Asa Branca VII,32,-5.2529,-35.943,Wind
Brazil,Asa Branca VIII,32,-5.2812,-35.9804,Wind
Brazil,Asfor,3.35,-3.7817,-38.5182,Gas
Brazil,Asja BH,4.278,-19.813,-43.9465,Waste
Brazil,Aspebras Bahia,1.64,-12.7641,-38.3913,Oil
Brazil,Assembleia Paraense,1.524,-1.413,-48.4363,Oil
Brazil,Assis Brasil - TECG,2.2,-10.9428,-69.5747,Oil
Brazil,Assis Chateaubriand(Antiga Salto Mimoso),29.5,-20.6753,-53.5676,Hydro
Brazil,Associação Pró-Ensino Novo Hanburgo,1.944,-29.6743,-51.1211,Oil
Brazil,Assuruá II,30,-11.1573,-42.6791,Wind
Brazil,Assuruá V,20,-11.1967,-42.6949,Wind
Brazil,Assuruá VII,18,-11.1674,-42.7,Wind
Brazil,Atacadão Ipiranga,1.08,-23.5773,-46.5918,Oil
Brazil,Atacadão Jacui,1,-23.492,-46.4467,Oil
Brazil,Atacadão Matriz,1.48,-23.5252,-46.5762,Oil
Brazil,Atacadão SA Brasilia,1.08,-15.7318,-47.8961,Oil
Brazil,Atacadão SA Cuiaba Porto,1.2,-15.6109,-56.0933,Oil
Brazil,Atacadão SA Taguatinga,1.12,-15.7942,-47.8822,Oil
Brazil,Atalaia,4.6,-10.907,-37.0625,Gas
Brazil,Atalaia do Norte,1.52,-4.3316,-70.1461,Oil
Brazil,Atlântica,4.8,-6.5474,-34.9737,Wind
Brazil,Atlântica I,30,-30.3188,-50.3161,Wind
Brazil,Atlântica II,30,-30.3265,-50.3234,Wind
Brazil,Atlântica IV,30,-30.2919,-50.335,Wind
Brazil,Atlântica V,30,-30.2915,-50.305,Wind
Brazil,Atos,3,-9.8679,-57.8132,Biomass
Brazil,Aura Mangueira XI,9,-33.0519,-52.8587,Wind
Brazil,Aura Mangueira XII,15,-33.1318,-52.9938,Wind
Brazil,Aura Mangueira XIII,15,-33.079,-52.8855,Wind
Brazil,Aura Mangueira XV,18,-33.142,-52.9626,Wind
Brazil,Aura Mirim IV,15,-33.0511,-52.9371,Wind
Brazil,Aureliano Chaves (Antiga Ibirité),226,-19.9866,-44.0889,Gas
Brazil,Autazes,6.042,-3.5755,-59.1233,Oil
Brazil,Autódromo,24,-28.8258,-51.8414,Hydro
Brazil,Avelar,1,-22.2939,-43.4181,Hydro
Brazil,Açominas,102.89,-20.5355,-43.6986,Coal
Brazil,BASF ANC,1,-23.6832,-46.5575,Oil
Brazil,BASF DEM,2.2224,-23.7455,-46.5528,Oil
Brazil,BASF IND,1.028,-23.1388,-47.2372,Oil
Brazil,BASF JAC,1.12,-23.2702,-45.9644,Oil
Brazil,BAXTER,2,-23.6768,-46.6822,Oil
Brazil,BEN Bioenergia,53,-9.9125,-36.3245,Biomass
Brazil,BENVETEX TEXTIL,1.84,-26.8842,-49.2004,Oil
Brazil,BIGFER FIXADORES,1.2,-29.2243,-51.3489,Oil
Brazil,BIGFER MATRIZ,1.4784,-29.2271,-51.3486,Oil
Brazil,BOULEVARD BELÉM,4.44,-1.4518,-48.495,Oil
Brazil,BSA SU,2.144,-15.7924,-47.8797,Oil
Brazil,BT LATAM - HORTOLANDIA,2.1744,-22.8967,-47.2036,Oil
Brazil,Bagre,1.222,-1.8932,-50.2016,Oil
Brazil,Baguari,140.544,-19.022,-42.123,Hydro
Brazil,Bahia I - Camaçari,31.8,-12.6616,-38.3255,Oil
Brazil,Bahia Pulp (Antiga Bacell),108.6,-12.6389,-38.3275,Biomass
Brazil,Baixa do Feijão I,30,-5.3698,-36.0317,Wind
Brazil,Baixa do Feijão II,30,-5.3022,-36.0381,Wind
Brazil,Baixa do Feijão III,30,-5.3449,-36.04,Wind
Brazil,Baixa do Feijão IV,30,-5.322,-36.0606,Wind
Brazil,Baixada Fluminense,530,-22.7183,-43.6335,Gas
Brazil,Balbina,249.75,-1.9158,-59.4733,Hydro
Brazil,Baldin,45,-21.9833,-47.4404,Biomass
Brazil,Bambuí,30,-20.0826,-46.0278,Biomass
Brazil,Banco Santander Brasil,1.8,-23.5435,-46.6265,Oil
Brazil,Banda de Couro,32.9,-9.8288,-41.0624,Wind
Brazil,Bandeirante,3,-26.7994,-53.6667,Hydro
Brazil,Bandeirantes,4.624,-23.4158,-46.7464,Waste
Brazil,Bangu Shopping 2,2.0544,-22.8749,-43.4578,Gas
Brazil,Baraúnas I,32.9,-9.8868,-41.1203,Wind
Brazil,Baraúnas II,25.85,-9.8412,-41.1037,Wind
Brazil,Barbosa Lima Sobrinho (Antiga Eletrobolt),375.12,-22.7155,-43.6378,Gas
Brazil,Barcelos,4.26,-0.963,-62.9241,Oil
Brazil,Bariri (Álvaro de Souza Lima),136.8,-22.1533,-48.7525,Hydro
Brazil,Barra,5.2,-25.7667,-52.0833,Hydro
Brazil,Barra,40.4,-24.0242,-47.3556,Hydro
Brazil,Barra Bioenergia,136,-22.474,-48.5225,Biomass
Brazil,Barra Bonita,140.76,-22.5194,-48.5344,Hydro
Brazil,Barra Escondida,2.25,-26.9039,-53.0297,Hydro
Brazil,Barra Grande,698.25,-27.7769,-51.1933,Hydro
Brazil,Barra Grande de Lençóis,62.9,-22.6213,-48.7473,Biomass
Brazil,Barra da Paciência,23,-18.95,-42.6,Hydro
Brazil,Barra do Braúna,39,-21.45,-42.4,Hydro
Brazil,Barra do Rio Chapéu,15.15,-28.0678,-49.1508,Hydro
Brazil,Barra dos Coqueiros,90,-18.7233,-51.0031,Hydro
Brazil,Barra dos Coqueiros,34.5,-10.81,-36.9293,Wind
Brazil,Barralcool,30,-15.0282,-57.2014,Biomass
Brazil,Barulho,1.32,-21.9983,-44.4039,Hydro
Brazil,Basf Guaratinguetá,3.05,-22.7766,-45.1595,Oil
Brazil,Basílica Nossa Senhora da Conceição Aparecida,1.296,-22.843,-45.2205,Oil
Brazil,Batalha (Antiga Paulista),52.5,-17.35,-47.4833,Hydro
Brazil,Batatais,3.9,-20.7537,-47.5664,Biomass
Brazil,Batista,2.704,-23.8397,-47.6531,Hydro
Brazil,Baturité,11.48,-4.3246,-38.8755,Oil
Brazil,Bayer,3.84,-23.544,-46.6265,Gas
Brazil,Bazan,10.2,-21.0061,-47.9836,Biomass
Brazil,Baía Formosa,40,-6.4123,-35.0462,Biomass
Brazil,Bebidas Ipiranga,3.75,-21.1426,-47.8215,Oil
Brazil,Bela União (Trincheira),2.25,-27.7808,-54.3734,Hydro
Brazil,Bela Vista,9.8,-20.9362,-48.0708,Biomass
Brazil,Belmonte,3.6,-26.8333,-53.6667,Hydro
Brazil,Belo Jardim,43.839,-10.0055,-67.7205,Oil
Brazil,Belo Monte,3327.45544,-3.1264,-51.775,Hydro
Brazil,Bem Brasil,2.125,-19.5641,-46.8975,Biomass
Brazil,Benjamim Mário Baptista (Antiga Nova Sinceridade),9,-20.2139,-41.9889,Hydro
Brazil,Benjamin Constant,5.1,-4.3521,-70.0258,Oil
Brazil,Benálcool,4.2,-21.2276,-50.7655,Biomass
Brazil,Bergamais,1.92,-23.4735,-46.6361,Oil
Brazil,Bergamini,2.72,-23.5435,-46.6266,Oil
Brazil,Berneck,12,-25.5382,-49.3615,Biomass
Brazil,Bertussi,1,-28.8669,-50.939,Hydro
Brazil,Biancogrês,5.11,-20.125,-40.2985,Gas
Brazil,Big Umuarama,1,-23.6758,-53.4052,Oil
Brazil,Bimbo,1.016,-29.9405,-50.9825,Oil
Brazil,Bimbo do Brasil,1.48,-23.5435,-46.6266,Oil
Brazil,Bio Alvorada,50,-18.4371,-49.1806,Biomass
Brazil,Bio Coopcana,50,-23.2655,-52.4761,Biomass
Brazil,Bio Fuel,4.8,0.9637,-59.9464,Biomass
Brazil,Bioenergética Aroeira,16,-18.7515,-48.6035,Biomass
Brazil,Bioenergética Vale do Paracatu - BEVAP,55,-17.0582,-46.1741,Biomass
Brazil,Bioflex Caeté,62.5,-9.773,-36.0759,Biomass
Brazil,Biolins,28,-21.6724,-49.7711,Biomass
Brazil,Biopav II,65,-21.2097,-50.1895,Biomass
Brazil,Biotérmica Recreio,8.556,-30.1468,-52.0165,Waste
Brazil,Blanver Cogeração,2,-23.5316,-46.9603,Gas
Brazil,Blue Tree Park Angra dos Reis,2,-23.003,-44.3085,Oil
Brazil,Boa Esperança (Antiga Castelo Branco),237.3,-6.752,-43.5641,Hydro
Brazil,Boa Fé,24,-28.7527,-51.8436,Hydro
Brazil,Boa Sorte,16,-11.8803,-46.7717,Hydro
Brazil,Boa Vista,80,-18.5423,-50.4335,Biomass
Brazil,Boa Vista II,8,-24.9229,-51.3963,Hydro
Brazil,Boa Vista do Ramos,2.062,-2.9649,-57.5786,Oil
Brazil,Boca do Acre,11.3,-8.7641,-67.3094,Oil
Brazil,Boca do Córrego,24.3,-3.0984,-39.6663,Wind
Brazil,Bocaiúva,30,-12.5303,-57.8808,Hydro
Brazil,Bom Jardim,30,-28.4403,-49.5703,Wind
Brazil,Bom Jesus,3.2,-8.2781,-35.0286,Biomass
Brazil,Bom Retiro,3.6,-22.8693,-47.444,Biomass
Brazil,Bom Sucesso,1.5,-18.0145,-49.7824,Biomass
Brazil,Bompreço Fortaleza,1.12,-3.7132,-38.5336,Oil
Brazil,Bompreço Maceió,1,-9.6618,-35.7258,Oil
Brazil,Bompreço Passo Fundo,1,-28.2588,-52.3972,Oil
Brazil,Bonfante,19,-22.0089,-43.2653,Hydro
Brazil,Bons Ventos,50,-4.4472,-37.7596,Wind
Brazil,Boqueirão,1,-7.4878,-36.1386,Hydro
Brazil,Borgo,20.16,-14.5084,-42.5867,Wind
Brazil,Bortolo Carolo,8,-20.9967,-48.0154,Biomass
Brazil,Brahma,13.08,-22.9192,-43.4408,Gas
Brazil,Branco Peres,3.98,-21.4838,-51.0189,Biomass
Brazil,Brasil Verde,1.2,-19.749,-44.8875,Coal
Brazil,Brasilgráfica,1.2,-23.507,-46.8665,Oil
Brazil,Braskem PVC-AL,2.9,-9.6746,-35.9565,Gas
Brazil,Brasília,10,-15.7968,-47.9403,Oil
Brazil,Braço,11.52,-22.7833,-44.2333,Hydro
Brazil,Braço Norte,5.18,-9.8322,-55.0153,Hydro
Brazil,Braço Norte II,10.752,-9.7833,-54.9833,Hydro
Brazil,Braço Norte III,14.16,-9.6667,-54.9667,Hydro
Brazil,Braço Norte IV,14,-9.6833,-54.9667,Hydro
Brazil,Braço Seco,1,-21.6078,-45.4239,Hydro
Brazil,Brecha,12.4,-20.5458,-42.9625,Hydro
Brazil,Brejauba,1.35,-18.9114,-42.44,Hydro
Brazil,Brotas,70,-22.3465,-48.0965,Biomass
Brazil,Brumado,12.895,-14.196,-41.6572,Oil
Brazil,Bruno Heidrich,1.0854,-27.0986,-50.13,Hydro
Brazil,Budai,1.0704,-23.5235,-46.893,Oil
Brazil,Buettner,3.6,-27.094,-48.908,Oil
Brazil,Bugres,11.12,-29.3464,-50.7016,Hydro
Brazil,Buricá,1.4,-27.925,-54.0792,Hydro
Brazil,Buriti,30,-2.8853,-39.9839,Wind
Brazil,Buriti,30,-19.3333,-52.6667,Hydro
Brazil,Buriti,75,-20.2147,-47.6444,Biomass
Brazil,Buriti,5,-20.2143,-47.6439,Biomass
Brazil,Buritirana,1.12,-11.9272,-46.2972,Hydro
Brazil,Byk,2,-22.702,-46.9765,Oil
Brazil,CAAL,3.825,-29.7825,-55.7695,Biomass
Brazil,CAE South,1.016,-23.4628,-46.5333,Oil
Brazil,CAMPINAS - 1,1.12,-22.9111,-47.0964,Oil
Brazil,CARBOFER,1.104,-20.1602,-44.9091,Oil
Brazil,CARGILL AGRICOLA SA CNPJ: 60.498.706/0130-54,1.08,-18.3519,-49.2197,Oil
Brazil,CAS-BC,1.944,-22.9044,-47.0625,Oil
Brazil,CATERPILLAR 2500KVA 3412 UNIDADE CAMPO DO MEIO,2,-21.8438,-46.4923,Oil
Brazil,CATIVA I,1.2,-27.0016,-49.3639,Biomass
Brazil,CATUAÍ MARINGÁ,2.8,-23.4163,-51.9611,Oil
Brazil,CD Cordeirópolis,1.44,-22.4888,-47.3903,Oil
Brazil,CECOL,1.0992,-22.478,-47.4472,Oil
Brazil,CEM (Antiga Camen),24,-17.9237,-49.1895,Biomass
Brazil,CENPES - Petrobrás,16.065,-22.899,-43.1985,Gas
Brazil,CERÂMICA PORTO FERREIRA,3.264,-21.8499,-47.4697,Oil
Brazil,CEUMA - ASSOCIAÇÃO DE ENSINO SUPERIOR,1.524,-2.5268,-44.2972,Oil
Brazil,CIF Mineração,3.6,-21.7551,-42.5483,Oil
Brazil,CINAL/TRIKEM,3.1875,-9.706,-35.8855,Gas
Brazil,CINDACTA IV,2.5,-3.0574,-60.077,Oil
Brazil,CMPC (Antiga Aracruz Unidade Guaíba),250.994,-30.1293,-51.2975,Biomass
Brazil,CNH Alvorada do Oeste,6.74,-11.335,-62.2767,Oil
Brazil,CNH Buritis,18,-10.2125,-63.8294,Oil
Brazil,CNH Campo Novo,3.52,-10.5681,-63.6072,Oil
Brazil,CNH Costa Marques,6.74,-12.4342,-64.2225,Oil
Brazil,CNH Cujubim,12,-9.3633,-62.5856,Oil
Brazil,CNH Distrito de Triunfo,8.6,-9.2851,-63.1306,Oil
Brazil,CNH Machadinho,15,-9.4164,-61.9947,Oil
Brazil,CNH Nova Califórnia,4.84,-9.7378,-66.6061,Oil
Brazil,CNH São Francisco,8.1,-12.0406,-63.5722,Oil
Brazil,CNH União Bandeirantes,6.72,-9.7008,-64.5192,Oil
Brazil,CNH Vale do Anari,4.84,-9.8639,-62.1658,Oil
Brazil,CNH Vila Extrema,4.84,-9.7719,-66.3425,Oil
Brazil,CNH Vista Alegre,9.2,-9.6469,-65.725,Oil
Brazil,CNT,36,-14.3432,-48.4308,Oil
Brazil,COCAM CIA DE CAFÉ SOLÚVEL E DERIVADOS,2.24,-21.1268,-48.9628,Oil
Brazil,CONCESSIONARIA AEROPORTO RIO DE JANEIRO SA,3.2,-22.8061,-43.2582,Oil
Brazil,CONDOMINIO EDIFICIO SHOPPING PATIO MACEIO,2.6,-9.5546,-35.7366,Oil
Brazil,CONDOMINIO SAO CONRADO FASHION MALL,1.1,-22.9924,-43.25,Oil
Brazil,CONDOMINIO VOLUNTARIO VIA VERDE SHOPPING CENTER,1.7592,-9.9818,-67.8383,Oil
Brazil,COSIMAT,2,-19.5488,-44.0664,Oil
Brazil,CRV,4,-15.3429,-49.72,Biomass
Brazil,CST,225.1,-20.125,-40.2985,Oil
Brazil,CTA-MR,2.016,-25.4233,-49.2803,Oil
Brazil,CTE Fibra,8.812,-22.696,-47.3422,Gas
Brazil,CTR Juiz de Fora,4.278,-21.6187,-43.4217,Waste
Brazil,Caa-Yari,1,-27.4292,-54.1206,Hydro
Brazil,Caapiranga,1.299,-3.3255,-61.2016,Gas
Brazil,Caarapó,114,-22.6105,-54.6848,Biomass
Brazil,Cabeça de Boi,30,-10.3542,-56.985,Hydro
Brazil,Cabixi,2.7,-12.9567,-60.1247,Hydro
Brazil,Cabixi II,2.8,-13.0194,-60.1128,Hydro
Brazil,Cabo de Santo Agostinho,2,-8.283,-35.0255,Oil
Brazil,Caboclo,4.16,-20.495,-43.4828,Hydro
Brazil,Cabot Mauá,7,-23.6367,-46.4621,Oil
Brazil,Cabrera,25,-19.3074,-50.7083,Biomass
Brazil,Cachoeira,11.12,-12.4922,-60.4717,Hydro
Brazil,Cachoeira,7.4,-9.4383,-35.724,Biomass
Brazil,Cachoeira Caldeirão,219,0.8533,-51.2917,Hydro
Brazil,Cachoeira Dourada,658,-18.5025,-49.4931,Hydro
Brazil,Cachoeira Dourada,40,-18.4945,-49.6445,Biomass
Brazil,Cachoeira Paulista,1,-22.7486,-44.9056,Hydro
Brazil,Cachoeira Poço Preto I,3.564,-24.0381,-49.4617,Hydro
Brazil,Cachoeira Poço Preto II,2.098,-24.0479,-49.4578,Hydro
Brazil,Cachoeira da Lixa,14.8,-17.0742,-40.0683,Hydro
Brazil,Cachoeira do Brumado,2.34,-21.8528,-43.8886,Hydro
Brazil,Cachoeira do Lavrinha (Antiga São Patrício),3.01,-15.5161,-49.4847,Hydro
Brazil,Cachoeirinha,1.25,-22.57,-46.41,Hydro
Brazil,Cachoeirinha,1,-26.7706,-52.1786,Hydro
Brazil,Cachoeirão,27,-19.4367,-41.6142,Hydro
Brazil,Cacimbas 1,18.9,-3.2532,-39.2809,Wind
Brazil,Caconde,80.4,-21.5767,-46.6242,Hydro
Brazil,Cadam,24.992,0.3843,-53.954,Oil
Brazil,Caetité,30.24,-14.1272,-42.5471,Wind
Brazil,Caetité 1,30,-14.1632,-42.4845,Wind
Brazil,Caetité 2,30,-14.185,-42.503,Wind
Brazil,Caetité 3,30,-14.2194,-42.507,Wind
Brazil,Caetité A,23.8,-14.1415,-42.4783,Wind
Brazil,Caetité B,22.1,-14.1146,-42.4749,Wind
Brazil,Caetité C,8.5,-14.1082,-42.4746,Wind
Brazil,Caititu,22.2,-14.4528,-42.641,Wind
Brazil,Caixão,1.172,-20.0569,-44.6089,Hydro
Brazil,Caju,3.2,-26.9517,-52.4594,Hydro
Brazil,Caju,10,-21.8958,-42.0791,Hydro
Brazil,Cajucoco,30,-2.9159,-39.9544,Wind
Brazil,Cajuru,7.2,-20.2394,-44.7539,Hydro
Brazil,Calango 1,30,-6.0339,-36.544,Wind
Brazil,Calango 2,30,-6.0166,-36.4835,Wind
Brazil,Calango 3,30,-6.0489,-36.546,Wind
Brazil,Calango 4,30,-6.0236,-36.472,Wind
Brazil,Calango 5,30,-6.0303,-36.488,Wind
Brazil,Calango 6,30,-6.0132,-36.4499,Wind
Brazil,Calheiros,19,-20.9847,-41.71,Hydro
Brazil,Calçados Azaléia,7.5,-15.245,-40.2385,Oil
Brazil,Calçoene,1.296,2.502,-50.9395,Oil
Brazil,Camargos,46,-21.3256,-44.6161,Hydro
Brazil,Camaçari,130.71,-12.694,-38.3145,Gas
Brazil,Camaçari,346.803,-12.5975,-38.2732,Gas
Brazil,Cambará,3.59,-15.9697,-55.0883,Hydro
Brazil,Camera Ijui,1.104,-28.4317,-53.878,Oil
Brazil,Camera Santa Rosa,3.12,-27.8548,-54.4707,Oil
Brazil,Camera São Luiz Gonzaga,1.6,-28.4007,-54.9626,Oil
Brazil,Camil Alimentos - Camaquã,4,-30.8189,-51.7039,Biomass
Brazil,Caminho da Praia,2,-8.3344,-35.0053,Wind
Brazil,Campina Grande,169.08,-7.2307,-35.89,Oil
Brazil,Campo Belo,10.5,-26.6123,-51.7401,Wind
Brazil,Campo Florido,30,-19.8091,-48.7255,Biomass
Brazil,Campo Lindo,25,-10.4681,-37.1815,Biomass
Brazil,Campo Maior,13.12,-4.8424,-42.1836,Oil
Brazil,Campo Real,1,-25.4175,-51.7514,Hydro
Brazil,Campo dos Ventos I,25.2,-5.345,-35.9428,Wind
Brazil,Campo dos Ventos II,30,-5.3201,-35.9322,Wind
Brazil,Campo dos Ventos III,25.2,-5.3356,-35.9669,Wind
Brazil,Campo dos Ventos V,25.2,-5.2931,-35.9479,Wind
Brazil,Campos (Antiga Roberto Silveira),30,-21.7155,-41.3285,Gas
Brazil,Campos Novos,880,-27.6017,-51.3169,Hydro
Brazil,Camurim,4.8,-6.5576,-34.9721,Wind
Brazil,Cana Brava,450,-13.3992,-48.1425,Hydro
Brazil,Canabrava,44,-21.6491,-41.3957,Biomass
Brazil,Canastra,42.5,-29.3934,-50.7465,Hydro
Brazil,Canatiba Tupis,2.7,-22.7731,-47.366,Oil
Brazil,Canaã,30,-22.9258,-47.5567,Biomass
Brazil,Canaã,17,-9.9439,-63.0642,Hydro
Brazil,Candiba,9.6,-14.1831,-42.6227,Wind
Brazil,Candiota III,350,-31.5458,-53.6566,Coal
Brazil,Canoa Quebrada,28,-12.7833,-56,Hydro
Brazil,Canoa Quebrada,57,-4.4671,-37.7577,Wind
Brazil,Canoas I,82.5,-22.9414,-50.5169,Hydro
Brazil,Canoas II,72,-22.9361,-50.2497,Hydro
Brazil,Cantú 2,19.8071,-24.7458,-52.4681,Hydro
Brazil,Capigui,3.76,-28.352,-52.204,Hydro
Brazil,Capivara (Escola de Engenharia Mackenzie),619,-22.658,-51.3598,Hydro
Brazil,Capivari,18.09,-28.1156,-48.966,Hydro
Brazil,Capricho,2.4,-9.3335,-36.1501,Biomass
Brazil,Capuava,18.02,-23.66,-46.5285,Oil
Brazil,Capão Preto,4.3,-21.85,-47.7833,Hydro
Brazil,Capão do Inglês,10,-30.9163,-55.7084,Wind
Brazil,Caracaraí,10.956,1.8265,-61.1136,Oil
Brazil,Caramuru Sorriso,9.696,-12.7418,-55.6773,Biomass
Brazil,Carandaí,4.234,-21.0556,-44.2094,Hydro
Brazil,Carangola,15,-20.7019,-42.0394,Hydro
Brazil,Carauari,5.456,-5.1149,-67.3281,Oil
Brazil,Caravela,4.8,-6.556,-34.969,Wind
Brazil,Carcará I,30,-4.9438,-36.9918,Wind
Brazil,Carcará II,30,-4.9457,-37.0036,Wind
Brazil,Careiro da Várzea,2.5,-3.1938,-59.7647,Oil
Brazil,Cargil Três Lagoas,6,-20.7978,-51.6318,Biomass
Brazil,Cargill Uberlândia,25,-18.8483,-48.2765,Biomass
Brazil,Carioca Shopping,3.2,-22.899,-43.1985,Gas
Brazil,Carlos Gonzatto,9,-27.6206,-53.8047,Hydro
Brazil,Carrefour - RPN,1.44,-21.1593,-47.8055,Oil
Brazil,Carrefour - SON,1.44,-23.4861,-47.4719,Oil
Brazil,Carrefour BGU,1.08,-23.4643,-46.5122,Oil
Brazil,Carrefour CPS,1.44,-22.8496,-47.0178,Oil
Brazil,Carrefour SAV,1.44,-23.9632,-46.36,Oil
Brazil,Carrefour SPT,1.44,-23.5188,-46.5914,Oil
Brazil,Casa de Força,7.92,-20.2304,-50.3345,Biomass
Brazil,Casa de Geradores de Energia Elétrica F-242,9,-23.0951,-45.822,Gas
Brazil,Casca II,3.52,-15.3636,-55.4453,Hydro
Brazil,Casca III,12.42,-15.3576,-55.4553,Hydro
Brazil,Cascata,6,-26.5889,-51.7427,Wind
Brazil,Cascata Chupinguaia,9.6,-12.7139,-60.8717,Hydro
Brazil,Cascata das Andorinhas,1.2,-27.35,-52.7667,Hydro
Brazil,Castaman I (Antiga Enganado),1.844,-13.0839,-60.6222,Hydro
Brazil,Castaman III,1.48,-13.1517,-60.6567,Hydro
Brazil,Castelo Branco Office Park,2.025,-23.5066,-46.8666,Oil
Brazil,Castro Alves,130.845,-29.0083,-51.3792,Hydro
Brazil,Catanduva,9,-21.1254,-48.8248,Biomass
Brazil,Catanduva (Antiga Cerradinho),75,-21.0966,-48.9335,Biomass
Brazil,Catas Altas I,4,-24.5972,-49.135,Hydro
Brazil,Caterpillar,11.48,-22.7033,-47.6246,Oil
Brazil,Catuai Shopping Center Londrina,2.8992,-29.1742,-51.2178,Oil
Brazil,Caucaia,14.76,-3.7327,-38.6434,Oil
Brazil,Caveiras,3.829,-27.8156,-50.4803,Hydro
Brazil,Cavernoso,1.26,-25.4936,-52.2128,Hydro
Brazil,Cavernoso II,19.008,-25.4933,-52.225,Hydro
Brazil,Cazuza Ferreira,9.1,-29.0167,-50.7167,Hydro
Brazil,Caçador,22.5,-28.7055,-51.8506,Hydro
Brazil,Caçu,65,-18.5294,-51.15,Hydro
Brazil,Caçú I,130,-18.6013,-51.1913,Biomass
Brazil,Ceasa-PE,1.6,-8.0668,-34.9225,Oil
Brazil,Cebrace Barra Velha,2.7528,-26.6347,-48.7047,Oil
Brazil,Cebrace Caçapava,4,-23.1314,-45.7531,Oil
Brazil,Cebrace Jacarei,2.4,-23.2847,-45.9417,Oil
Brazil,Cedasa,3.567,-22.453,-47.5205,Oil
Brazil,Celpav II,32.6,-21.5487,-47.7725,Oil
Brazil,Celpav IV,139.424,-23.2949,-45.981,Gas
Brazil,Celso Furtado (Antiga Termobahia Fase I),185.891,-12.7038,-38.5669,Gas
Brazil,Celso Ramos,5.6,-26.7578,-52.2578,Hydro
Brazil,Celulose Irani,4.9,-26.9416,-51.7466,Biomass
Brazil,Cencosud - GBarbosa - 153,1,-12.9159,-38.4431,Oil
Brazil,Cencosud - GBarbosa - 31,1.44,-12.9792,-38.4697,Oil
Brazil,Cencosud - GBarbosa - 35,1.08,-12.9914,-38.4486,Oil
Brazil,Cencosud - GBarbosa - 6,1.08,-10.9414,-37.0581,Oil
Brazil,Cencosud - GBarbosa - 81,1.08,-9.6312,-35.6999,Oil
Brazil,Cencosud - GBarbosa - 84,1.08,-9.6489,-35.7058,Oil
Brazil,Cencosud - M. Rodrigues - 10,1.2,-12.9006,-38.3326,Oil
Brazil,Cencosud - M. Rodrigues - 607,1.2,-9.4253,-40.5055,Oil
Brazil,Cencosud - M. Rodrigues - 806,1.2,-10.9386,-37.0828,Oil
Brazil,Cenibra,100,-19.216,-42.4745,Biomass
Brazil,Center Shopping Uberlândia,2.1792,-18.91,-48.2594,Oil
Brazil,Central Energética Ribeirão Preto (Antiga Galo Bravo),9,-21.1112,-47.8166,Biomass
Brazil,Central GH Engenheiro Bernardo Figueiredo,2.25,-22.7392,-46.9075,Hydro
Brazil,Central I,1.557,-26.9197,-50.4114,Hydro
Brazil,Central Mineirão,1.4184,-19.8656,-43.9711,Solar
Brazil,Central Olho D Água,25,-7.4176,-35.2441,Biomass
Brazil,Central Termelétrica de Geração (Antiga Forjasul),1.8,-30.54,-52.5125,Biomass
Brazil,Central de Cogeração Shopping Caxias,1.3,-22.7818,-43.3025,Gas
Brazil,Centro Administrativo Farroupilha,1.041,-30.029,-51.2205,Oil
Brazil,Centro Oeste Iguatemi,4,-23.1627,-54.3845,Biomass
Brazil,Cepasa,5,-8.1096,-35.0039,Biomass
Brazil,Cerradão,54,-19.9183,-49.1458,Biomass
Brazil,Cerro Chato I (Antiga Coxilha Negra V),30,-30.8407,-55.7251,Wind
Brazil,Cerro Chato II (Antiga Coxilha Negra VI),30,-30.8485,-55.6856,Wind
Brazil,Cerro Chato III (Antiga Coxilha Negra VII),30,-30.8018,-55.7142,Wind
Brazil,Cerro Chato IV,10,-30.8327,-55.7558,Wind
Brazil,Cerro Chato V,12,-30.7957,-55.7556,Wind
Brazil,Cerro Chato VI,24,-30.783,-55.6906,Wind
Brazil,Cerro dos Trindade,8,-30.8512,-55.7527,Wind
Brazil,Cervejaria Petrópolis,4.352,-22.31,-42.8644,Oil
Brazil,Cervejaria Petrópolis - Alagoinhas,3.1056,-12.0843,-38.3436,Oil
Brazil,Cervejatia Petrópolis - Itapissuma,3.1056,-7.7943,-34.9166,Oil
Brazil,Cerâmica Urussanga,2.448,-28.5308,-49.3094,Oil
Brazil,Cerâmicos Fortaleza,1.92,-22.407,-47.5515,Oil
Brazil,Cesar Filho,7,-12.2698,-61.1862,Hydro
Brazil,Cesar Park Business Hotel/Globenergy,2.1,-23.459,-46.5235,Gas
Brazil,Cevasa,54,-20.7478,-47.4218,Biomass
Brazil,Chaminé,18,-25.8153,-49.0606,Hydro
Brazil,Chapadão Agroenergia,92,-21.1994,-50.1965,Biomass
Brazil,Chavantes,414,-23.1286,-49.7314,Hydro
Brazil,Chibarro,2.6,-21.8881,-48.1472,Hydro
Brazil,Chris Cintos,4,-23.6461,-46.6386,Oil
Brazil,Chupinguaia,5.41,-12.5333,-60.8889,Oil
Brazil,Chupinguaia,1.27,-12.5694,-60.8928,Hydro
Brazil,Chuí 09,17.9,-33.6875,-53.381,Wind
Brazil,Chuí I,24,-33.6565,-53.3936,Wind
Brazil,Chuí II,22,-33.6594,-53.4003,Wind
Brazil,Chuí IV,22,-33.6647,-53.4164,Wind
Brazil,Chuí V,30,-33.6681,-53.4218,Wind
Brazil,Cia Minuano,1.016,-29.3584,-51.9556,Oil
Brazil,Cia de Alimentos Ibituruna,2,-18.7794,-41.9541,Oil
Brazil,Cidade Nova,15.6,-3.0241,-59.9592,Oil
Brazil,Cidezal,17,-13.37,-59.0126,Hydro
Brazil,Citrosuco,7,-21.5947,-48.3636,Biomass
Brazil,Citrosuco,2.3,-22.5945,-47.3542,Oil
Brazil,Citrovita Catanduva,19.824,-21.134,-48.9635,Biomass
Brazil,Clealco Clementina,11.2,-21.578,-50.4216,Biomass
Brazil,Clealco Queiroz,45,-21.8503,-50.2472,Biomass
Brazil,Coaracy Nunes,76.952,0.9031,-51.2592,Hydro
Brazil,Cocais Grande,10,-19.5319,-42.7672,Hydro
Brazil,Cocal,28.2,-22.47,-50.7793,Biomass
Brazil,Cocal II,131.3,-22.5268,-51.494,Biomass
Brazil,Cocamar Maringá,13,-23.4303,-51.9774,Biomass
Brazil,Codajás,3.656,-3.8366,-62.053,Gas
Brazil,Codora,48,-15.2714,-49.158,Biomass
Brazil,Codorna,1.944,-20.1517,-43.8842,Hydro
Brazil,Coelhos I,4.8,-6.5758,-34.9718,Wind
Brazil,Coelhos II,4.8,-6.5701,-34.9674,Wind
Brazil,Coelhos III,4.8,-6.5566,-34.9664,Wind
Brazil,Coelhos IV,4.8,-6.5814,-34.9747,Wind
Brazil,Cofercatu,4,-22.8892,-51.3931,Biomass
Brazil,Cogeracao Diesel - Cargilll de Castro Pr,1.80115,-24.7758,-49.8856,Oil
Brazil,Cogeração De Millus Av. Brasil,3.69926,-22.9192,-43.4408,Gas
Brazil,Cogeração International Paper - Fases I e II,50.5,-22.3563,-46.9605,Oil
Brazil,Coinbra - Frutesp,5,-20.9295,-48.5072,Biomass
Brazil,Coinbra - Frutesp,8,-21.6335,-48.3421,Biomass
Brazil,Colino 1,11,-17.0778,-40.0853,Hydro
Brazil,Colino 2,16,-17.0725,-40.1047,Hydro
Brazil,Colombo Ariranha,105.5,-21.2116,-48.8296,Biomass
Brazil,Colombo Ariranha 2,40,-21.2118,-48.828,Biomass
Brazil,Colombo Palestina,15,-20.3107,-49.5898,Biomass
Brazil,Colombo Santa Albertina,50,-20.0361,-50.6662,Biomass
Brazil,Color Visão do Brasil Indústria Acrílica,2.4,-21.2305,-50.5078,Oil
Brazil,Colorado,52.76,-20.2792,-48.1755,Biomass
Brazil,Colorado,1.12,-28.6428,-52.9269,Hydro
Brazil,Colorado do Oeste,10.946,-13.1149,-60.5186,Oil
Brazil,Colônia,18.9,-3.5422,-38.8784,Wind
Brazil,Combustol,2.175,-23.4864,-46.7439,Oil
Brazil,Comendador Venâncio,1.6,-21.1667,-42.0833,Hydro
Brazil,Comigo,5,-15.4212,-49.7344,Biomass
Brazil,Companhia Brasileira de Vidros Planos,4.536,-7.5084,-34.9747,Oil
Brazil,Companhia Maranhense de Refrigerantes - Varzea Grande,4,-15.6103,-56.1544,Oil
Brazil,Complem,1.246,-17.6875,-49.1329,Oil
Brazil,Component,1.62,-23.682,-46.6135,Oil
Brazil,Comvap,8.8,-4.8503,-42.8765,Biomass
Brazil,Condominio Edificio Faria Lima Financial Center,1.8016,-23.5822,-46.6736,Oil
Brazil,Condominio de Administraçao do Goiania Shopping,3.64,-16.7083,-49.2725,Oil
Brazil,Condomínio Canoas Shopping Center,1.334,-29.914,-51.1745,Oil
Brazil,Condomínio Civil Pantanal Shopping,3.36,-15.592,-56.0875,Oil
Brazil,Condomínio Edifício Nova São Paulo,1.416,-23.6288,-46.7015,Oil
Brazil,Condomínio Edifícios New York e Los Angeles,2,-23.6461,-46.6386,Oil
Brazil,Condomínio Edilício Pátio Belém,1.28,-1.4558,-48.5044,Oil
Brazil,Condomínio SP Market Center,4,-23.674,-46.688,Oil
Brazil,Condomínio Shopping Center Lapa,1.92,-12.967,-38.5015,Oil
Brazil,Condomínio World Trade Center,5.25,-23.6032,-46.6874,Gas
Brazil,Condomínio do Castanheira Shopping Center,2.56,-1.3624,-48.3628,Oil
Brazil,Congonhal I,1.616,-22.1128,-44.8422,Hydro
Brazil,Conquista de Minas,3.6,-20.0167,-47.6159,Biomass
Brazil,Conquista do Pontal,110,-22.1202,-51.7568,Biomass
Brazil,Conselvan,1,-9.9266,-59.9203,Biomass
Brazil,Consórcio Condomínio Catarina Fashion Outlet,2.4,-23.4166,-47.1528,Oil
Brazil,Contagem,19.299,-19.9432,-44.0061,Gas
Brazil,Contestado,5.6,-26.6733,-51.7169,Hydro
Brazil,Continental,8,-20.1818,-48.6887,Biomass
Brazil,Coocarol,4,-23.3652,-52.7003,Biomass
Brazil,Cooper-Rubi,2.4,-15.1754,-49.7488,Biomass
Brazil,CooperSul,1.44,-31.7595,-52.474,Oil
Brazil,Cooperfrigo,4,-21.5208,-49.8611,Biomass
Brazil,Coopernavi,12,-23.126,-54.1924,Biomass
Brazil,Cooperval,3.6,-23.6819,-51.6831,Biomass
Brazil,Copa DOr,1.6,-22.899,-43.1985,Oil
Brazil,Copebrás Catalão,14.8,-18.166,-47.9325,Oil
Brazil,Copesul,74.4,-29.939,-51.7085,Oil
Brazil,Coplasa,10,-21.0286,-49.9184,Biomass
Brazil,Coprodia,6,-13.781,-57.8406,Biomass
Brazil,Coqueiral,3.164,-27.5158,-49.0781,Hydro
Brazil,Coqueirinho,29.6,-14.4199,-42.6287,Wind
Brazil,Coqueiros,27,-2.8855,-39.9721,Wind
Brazil,Coraci,1.384,-22.6751,-49.7627,Biomass
Brazil,Corfio,1.48,-26.7716,-51.0058,Oil
Brazil,Corona,18,-21.4163,-48.2793,Biomass
Brazil,Coronel Araújo,5.8,-26.6725,-51.7525,Hydro
Brazil,Corredor do Senandes II,21.6,-32.3862,-52.327,Wind
Brazil,Corredor do Senandes III,27,-32.4127,-52.3555,Wind
Brazil,Corredor do Senandes IV,29.7,-32.3689,-52.342,Wind
Brazil,Corrente Grande,14,-18.95,-42.5167,Hydro
Brazil,Corrente Grande,1.25,-18.89,-42.724,Hydro
Brazil,Corrupião,27.75,-14.2927,-42.5853,Wind
Brazil,Corumbataí,1.7,-22.4833,-47.6,Hydro
Brazil,Corumbá I,375.3,-17.9893,-48.531,Hydro
Brazil,Corumbá III,96.447,-16.7861,-47.9419,Hydro
Brazil,Corumbá IV,127,-16.3208,-48.1883,Hydro
Brazil,Coruripe,16,-9.9783,-36.2156,Biomass
Brazil,Coruripe Energética - Filial Campo Florido,30,-19.8089,-48.7295,Biomass
Brazil,Coruripe Iturama,24,-19.7046,-50.3289,Biomass
Brazil,Cory,1.44,-21.36,-46.9305,Oil
Brazil,Cosima,4.9,-3.6875,-45.428,Coal
Brazil,Cosipa II,18.5,-23.8608,-46.3623,Coal
Brazil,Cosipar,14,-5.365,-49.1085,Coal
Brazil,Costa Bioenergia,15,-23.6592,-53.3994,Biomass
Brazil,Costa Branca,20.7,-5.4215,-35.8526,Wind
Brazil,Costa Pinto,75,-22.6357,-47.6749,Biomass
Brazil,Costa Rica,16,-18.5667,-53.1333,Hydro
Brazil,Cotiporã,19.5,-28.9666,-51.75,Hydro
Brazil,Cotovelo do Jacuí,3.34,-28.6714,-52.7086,Hydro
Brazil,Coxilha Seca,30,-30.888,-55.7352,Wind
Brazil,Crato,13.12,-7.2324,-39.478,Oil
Brazil,Cristalina Alimentos,1.92,-16.6947,-47.5085,Oil
Brazil,Cristalino,4,-24.5633,-51.5533,Hydro
Brazil,Cristina,3.8,-22.1578,-45.2806,Hydro
Brazil,Criúva,23.949,-28.9808,-50.7825,Hydro
Brazil,Cromex - BA,1.296,-12.8236,-38.4245,Oil
Brazil,Cruz Alta,30,-26.5994,-51.7255,Wind
Brazil,Cruzeiro do Sul,24.2104,-7.6116,-72.665,Oil
Brazil,Cruzeiro do Sul  CEA,33.12,-7.6308,-72.67,Oil
Brazil,Cucaú,12.6,-8.6369,-35.2617,Biomass
Brazil,Cuiabá (Antga Mário Covas),529.2,-15.596,-56.097,Gas
Brazil,Culuene,1.794,-14.6333,-53.9333,Hydro
Brazil,Curemas,3.52,-7.0167,-37.9667,Hydro
Brazil,Curuá-Una,30.3,-2.8117,-54.2989,Hydro
Brazil,Córrego Santa Cruz,1,-12.6456,-58.3189,Hydro
Brazil,D,1.36,-20.1169,-43.8681,Hydro
Brazil,DHB Componentes Automotivos (Unidade 1),1.016,-30.0914,-51.1556,Oil
Brazil,DHB Componentes Automotivos (Unidade 2),2.032,-30.0914,-51.1556,Oil
Brazil,DTCEA-MN,1,-3.1423,-59.9705,Oil
Brazil,DVPA,28,-17.1171,-46.6541,Biomass
Brazil,Da Fazenda,27,-10.3303,-56.9814,Hydro
Brazil,Da Ilha,26,-28.8833,-51.45,Hydro
Brazil,Da Mata,40,-21.3255,-50.9456,Biomass
Brazil,Da Pedra,70,-21.1706,-47.6205,Biomass
Brazil,Da Prata,21.84,-13.9643,-42.6389,Wind
Brazil,Dacal,4.4,-21.9106,-50.856,Biomass
Brazil,Dacalda,6,-23.1569,-50.0936,Biomass
Brazil,Daia,44.44,-16.398,-48.9344,Oil
Brazil,Dakota Calçados,1.095,-10.7343,-37.8016,Oil
Brazil,Dalapria,1.44,-26.7961,-52.1367,Hydro
Brazil,Dalba,1,-25.2817,-51.877,Hydro
Brazil,Damascena,30,-11.8567,-41.4742,Wind
Brazil,Dardanelos,261,-10.1633,-59.4642,Hydro
Brazil,Dasa,4.2,-17.8335,-40.1786,Biomass
Brazil,Decasa,33,-22.7623,-50.1025,Biomass
Brazil,Della Coletta,4,-22.0536,-48.7021,Biomass
Brazil,Delta,101.875,-19.9716,-47.7589,Biomass
Brazil,Delta do Parnaíba,30,-2.8318,-41.7136,Wind
Brazil,Derivação do Rio Jordão,6.5,-25.7589,-52.0869,Hydro
Brazil,Destil,3.4,-21.2515,-49.1283,Biomass
Brazil,Destilaria Guaricanga,1.6,-22.0541,-49.3107,Biomass
Brazil,Destilaria Malosso,4,-21.6237,-48.821,Biomass
Brazil,Destilaria Melhoramentos,18.38,-23.5612,-52.4182,Biomass
Brazil,Destilaria Paraguaçu,3.6,-22.4618,-50.4825,Biomass
Brazil,Destilaria Porto Alegre,2.4,-8.8935,-35.6571,Biomass
Brazil,Destilaria de Álcool Ibaiti,3.6,-23.6782,-50.4048,Biomass
Brazil,Destivale,5,-21.114,-50.4543,Biomass
Brazil,Diacal II,5.04,-11.7403,-46.7525,Hydro
Brazil,Diamante,7,-22.3657,-48.6834,Biomass
Brazil,Diamante (Antiga Camargo Corrêa),4.23,-14.3464,-56.7947,Hydro
Brazil,Diana,2.873,-21.3973,-49.884,Biomass
Brazil,Dianópolis,5.5,-11.4661,-46.8189,Hydro
Brazil,Distribuidora Amaral,1.5,-20.1197,-44.9212,Oil
Brazil,Distrito - Bloco Soenergy,21.32,2.7617,-60.7247,Oil
Brazil,Divino,1.251,-20.6994,-42.075,Hydro
Brazil,Divisa,10.8,-13.3631,-59.1419,Hydro
Brazil,Do Atlântico,490,-22.9096,-43.7297,Oil
Brazil,Doce Mineiro,2.24,-18.7541,-49.2632,Oil
Brazil,Doido,6,-11.7098,-46.7563,Hydro
Brazil,Dois Córregos,3.6,-22.3348,-48.3971,Biomass
Brazil,Dois Riachos,30,-11.8225,-41.4591,Wind
Brazil,Dois Vizinhos,1.98,-25.73,-53.0475,Biomass
Brazil,Dona Francisca,125,-29.4496,-53.2857,Hydro
Brazil,Dona Maria Piana,1,-29.2,-51.25,Hydro
Brazil,Dori Alimentos,3.75,-22.1743,-49.9736,Oil
Brazil,Dos Araçás,31.86,-14.1296,-42.5597,Wind
Brazil,Dourados,10.8,-20.65,-47.6833,Hydro
Brazil,Dourados,28.56,-14.1523,-42.6816,Wind
Brazil,Dreen Boa Vista,14,-5.1106,-35.9279,Wind
Brazil,Dreen Olho D Água,30,-5.0545,-35.9687,Wind
Brazil,Dreen São Bento do Norte,30,-5.053,-35.9784,Wind
Brazil,Dulcini,1.8512,-22.6107,-46.9245,Biomass
Brazil,Dunas de Paracuru,42,-3.4367,-38.9854,Wind
Brazil,Durandé,3,-20.0797,-41.7336,Hydro
Brazil,E,1.4,-20.1167,-43.8858,Hydro
Brazil,E Nova,2.744,-20.1258,-43.9502,Hydro
Brazil,EMPRESA DE MINERAÇÃO ESPERANÇA S A - EMESA,3.12,-20.117,-44.2141,Oil
Brazil,ENGEFLEX BAHIA,3.648,-14.8621,-40.83,Oil
Brazil,ERB Candeias,16.79,-12.763,-38.4718,Biomass
Brazil,ESPIGÃO I,3.5872,-2.5896,-43.1995,Gas
Brazil,ETA006,1.12,-10.2875,-48.2956,Oil
Brazil,ETERNIT RIO DE JANEIRO,1.524,-22.8349,-43.3605,Oil
Brazil,Ecoluz,12.33,-25.3893,-51.4458,Biomass
Brazil,Edifício Odebrecht,1.3,-23.5678,-46.6939,Oil
Brazil,Edifício Rochaverá,5.47,-23.544,-46.6265,Oil
Brazil,Edifício Sky,1.3,-23.6461,-46.6386,Gas
Brazil,Editora o Dia,3.3,-22.899,-43.1985,Oil
Brazil,Egídio,2,-10.314,-58.3495,Biomass
Brazil,Eirunepé,6.33,-6.6566,-69.8666,Oil
Brazil,Eldorado,141.019,-21.8514,-54.0159,Biomass
Brazil,Eldorado Brasil,226,-20.5957,-51.5975,Biomass
Brazil,Electron (TG),120,-3.121,-59.9186,Oil
Brazil,Elekeiroz,8.988,-23.2038,-46.8144,Oil
Brazil,Elektro 4UGs,1.656,-22.9927,-47.0976,Oil
Brazil,Eloy Chaves,19,-22.7,-47.2833,Hydro
Brazil,Ematex,1.247,-19.7756,-44.0626,Oil
Brazil,Embaúba,4.5,-15.9825,-55.0828,Hydro
Brazil,Emborcação,1192,-18.4519,-47.9859,Hydro
Brazil,Embuaca,27.3,-3.2147,-39.3288,Wind
Brazil,Emiliana,28.2,-13.91,-42.6242,Wind
Brazil,Enacel,31.5,-4.5099,-37.7607,Wind
Brazil,Energia Madeiras,4,-26.1852,-50.3597,Biomass
Brazil,Energy Green,5,-24.9522,-50.1,Biomass
Brazil,Energy Works Kaiser Pacatuba,5.552,-3.98,-38.6105,Gas
Brazil,EnergyWorks Corn Products Balsa,9.199,-25.58,-49.6265,Gas
Brazil,EnergyWorks Corn Products Mogi,30.775,-22.368,-46.9325,Gas
Brazil,Energética Itajubara,4.4,-4.2788,-42.9783,Biomass
Brazil,Energética Santa Helena,3.2,-21.9943,-53.4155,Biomass
Brazil,Enervale,30,-17.0598,-46.1705,Biomass
Brazil,Engenheiro Ernesto Jorge Dreher,17.87,-29.1203,-53.3678,Hydro
Brazil,Engenheiro Henrique Kotzian,13,-29.1306,-53.3156,Hydro
Brazil,Engenheiro José Gelásio da Rocha,24.435,-16.7,-54.76,Hydro
Brazil,Engenheiro José Luiz Muller de Godoy Pereira (Antiga Foz do Rio Claro),68.4,-19.1178,-50.6456,Hydro
Brazil,Engenho Coradini,1.2,-30.9735,-54.6353,Biomass
Brazil,Enguia Pecém,14.76,-3.598,-39.0477,Oil
Brazil,Envira,3.38,-7.4368,-70.0203,Oil
Brazil,Equipav,58.4,-21.5208,-49.8611,Biomass
Brazil,Equipav II,80,-21.5208,-49.8611,Biomass
Brazil,Ernestina,4.8,-28.5558,-52.5456,Hydro
Brazil,Ernesto Lavratti Neto,1,-26.5531,-52.3272,Hydro
Brazil,Esdeva,2.545,-21.7602,-43.3408,Oil
Brazil,Esmeralda,22.2,-27.7833,-51.3667,Hydro
Brazil,Esmeril,5.04,-20.8333,-47.3,Hydro
Brazil,Esperança,2.4,-13.7786,-59.7889,Hydro
Brazil,Espigão,2.3,-11.4797,-60.7469,Hydro
Brazil,Espigão,10.08,-14.477,-42.5853,Wind
Brazil,Espirito Santo,1.44,-19.9196,-43.9289,Oil
Brazil,Espora,32.01,-18.6758,-51.8656,Hydro
Brazil,Espraiado,1.25,-22.35,-46.225,Hydro
Brazil,Ester,46.4,-22.6533,-47.2014,Biomass
Brazil,Estivas,17,-6.2266,-35.198,Biomass
Brazil,Estreito,1087,-6.5872,-47.4594,Hydro
Brazil,Estreito (Luiz Carlos Barreto de Carvalho),1048,-20.1506,-47.2794,Hydro
Brazil,Estrela,29.7,-3.248,-39.2943,Wind
Brazil,Eternit,2.96,-25.2877,-49.2147,Oil
Brazil,Eternit Simões Filho,1.44,-12.7805,-38.3944,Oil
Brazil,Euclidelândia,1.4,-21.9166,-42.2549,Hydro
Brazil,Euclides da Cunha,108.8,-21.6031,-46.9492,Hydro
Brazil,Eurus I,30,-5.3651,-35.8619,Wind
Brazil,Eurus II,30,-5.3919,-35.8331,Wind
Brazil,Eurus III,30,-5.3973,-35.8749,Wind
Brazil,Eurus IV,27,-5.2622,-35.8145,Wind
Brazil,Eurus VI,8,-5.2329,-35.9318,Wind
Brazil,Euzébio Rocha (Antiga Cubatão - CCBS),249.9,-23.9293,-46.4239,Gas
Brazil,Evo,1,-24.474,-51.7922,Hydro
Brazil,Extra Aracaju,1.408,-10.9071,-37.0622,Oil
Brazil,Extra Caraguatatuba,2.72,-23.6163,-45.4036,Oil
Brazil,Extra São José dos Campos,1.44,-23.1755,-45.8775,Oil
Brazil,Eólica Canoa Quebrada,10.5,-4.5358,-37.6953,Wind
Brazil,Eólica Icaraizinho,54.6,-3.0179,-39.6741,Wind
Brazil,Eólica Paracuru,25.2,-3.4315,-38.962,Wind
Brazil,Eólica Praias de Parajuru,28.804,-4.3631,-37.8839,Wind
Brazil,Eólica de Prainha,10,-3.8708,-38.3803,Wind
Brazil,Eólica de Taíba,5,-3.4953,-38.9339,Wind
Brazil,Eólica Água Doce,9,-26.5839,-51.6876,Wind
Brazil,Eólio - Elétrica de Palmas,2.5,-26.5781,-51.7004,Wind
Brazil,F,3.792,-20.1169,-43.8681,Hydro
Brazil,F PIO - LOJAS VISÃO BELÉM,1.524,-1.4575,-48.4944,Oil
Brazil,FBA,4.44,-23.3516,-47.8475,Oil
Brazil,FERROUS RESOURCES DO BRASIL S A,3,-20.5032,-43.9168,Oil
Brazil,FIRMENICH 1,1.44,-23.5985,-46.908,Oil
Brazil,FIRMENICH 2,1.32,-23.5999,-46.9097,Oil
Brazil,FNS-PO,1.7978,-27.595,-48.5486,Oil
Brazil,FORTALEZA - 2,1.8,-3.7489,-38.4539,Oil
Brazil,Fagundes,4.8,-22.2042,-43.0931,Hydro
Brazil,Fany,1.2,-22.3051,-51.2115,Biomass
Brazil,Faria Lemos,1.224,-20.7942,-42,Hydro
Brazil,Faria Lima Square,1.44,-23.5839,-46.6728,Oil
Brazil,Farias,1.35,-19.067,-42.8092,Hydro
Brazil,Farol,20,-5.097,-36.0204,Wind
Brazil,Faxinal II,30,-10.1622,-59.4578,Hydro
Brazil,Faxinal dos Guedes,4,-26.7636,-52.2183,Hydro
Brazil,Faxinal l,2.788,-10.1648,-59.4466,Hydro
Brazil,Fazenda Rosário,9.2,-30.4469,-50.3888,Wind
Brazil,Fazenda Rosário 2,23,-30.4398,-50.4053,Wind
Brazil,Fazenda Rosário 3,16.1,-30.4525,-50.4226,Wind
Brazil,Fazenda Velha,16.5,-17.968,-51.7613,Hydro
Brazil,Faísa I,29.4,-3.3218,-39.2671,Wind
Brazil,Faísa II,27.3,-3.3188,-39.2396,Wind
Brazil,Faísa III,25.2,-3.3478,-39.2652,Wind
Brazil,Faísa IV,25.2,-3.3221,-39.2671,Wind
Brazil,Faísa V,29.4,-3.3699,-39.2621,Wind
Brazil,Feijó,4.8864,-8.1713,-70.3496,Oil
Brazil,Feijó  CEA,5.875,-8.1639,-70.3539,Oil
Brazil,Feixos,1.3,-22.6975,-46.8512,Hydro
Brazil,Fernando Gasparian (Antiga Nova Piratininga),386.08,-23.6949,-46.6691,Gas
Brazil,Ferradura,9.2,-27.5594,-53.5767,Hydro
Brazil,Ferrari,80.5,-21.8411,-47.3514,Biomass
Brazil,Ferreira Gomes,252,0.852,-51.2,Hydro
Brazil,Fibrasa,1.44,-7.9077,-34.8933,Oil
Brazil,Fibrasa Embalagens,1.1,-20.1246,-40.2983,Oil
Brazil,Fibrasa Nordeste,1.92,-7.9077,-34.8933,Oil
Brazil,Fibria - MS (Antiga VCP - MS),163.2,-20.751,-51.678,Biomass
Brazil,Figueira,20,-23.8482,-50.3808,Coal
Brazil,Figueira Indústria e Comércio,4.4,-21.111,-50.2236,Biomass
Brazil,Figueirópolis,19.41,-15.3926,-58.6378,Hydro
Brazil,Fischer,5,-22.5136,-47.3723,Biomass
Brazil,Fleixeiras I,30.004,-3.2011,-39.3647,Wind
Brazil,Flor do Mato,4.8,-26.8481,-51.8794,Hydro
Brazil,Flor do Sertão,16.5,-26.7877,-53.3942,Hydro
Brazil,Floraplac,1.25,-3.1995,-47.5937,Biomass
Brazil,Flores,80,-3.0707,-60.0144,Oil
Brazil,Flórida Clean Power do Amapá,1.7,0.0408,-51.1351,Biomass
Brazil,Fonte Boa,5.12,-2.5202,-66.0291,Oil
Brazil,Fontes Nova,130.3,-22.7031,-43.8814,Hydro
Brazil,Forquilha,1,-27.6667,-51.7333,Hydro
Brazil,Fortaleza,326.601,-3.6771,-38.8566,Gas
Brazil,Fortlev Sul,2.2,-26.4579,-48.7487,Oil
Brazil,Foz do Chapecó,855,-27.1417,-53.0397,Hydro
Brazil,Foz do Rio Choró,25.2,-4.1256,-38.1503,Wind
Brazil,Franca Amaral,4.5,-21.0537,-41.72,Hydro
Brazil,Francisco Gross (Antiga Santa Fé),29,-20.7,-41.5167,Hydro
Brazil,Frango Sertanejo,4.944,-20.791,-49.2105,Oil
Brazil,França,29.52,-23.9406,-47.1944,Hydro
Brazil,Frascal,2.2,-26.9564,-50.4889,Hydro
Brazil,Frederico João Cerutti SA,1.2,-27.5103,-53.4253,Hydro
Brazil,Frigobet,1.56,-19.9437,-44.1898,Oil
Brazil,Fronteira,2.6,-20.2996,-49.1965,Biomass
Brazil,Frutal,16.092,-20.0803,-48.8124,Biomass
Brazil,Fruteiras,8.736,-20.7022,-41.0894,Hydro
Brazil,Fuga Couros,1.296,-28.4452,-52.1905,Oil
Brazil,Fuga Couros - Camargo,1.016,-28.6124,-52.2118,Oil
Brazil,Fumaça,36.4,-24.0075,-47.2639,Hydro
Brazil,Fumaça,10,-20.45,-43.2667,Hydro
Brazil,Fumaça IV,4.5,-20.7492,-41.8761,Hydro
Brazil,Fundão,120.168,-25.7086,-51.9981,Hydro
Brazil,Fundão I,2.475,-25.7086,-51.9981,Hydro
Brazil,Funfarme,1.609,-20.8157,-49.37,Oil
Brazil,Funil,216,-22.5303,-44.5669,Hydro
Brazil,Funil,3.6,-20.4967,-43.4722,Hydro
Brazil,Funil,22.5,-19.0833,-42.85,Hydro
Brazil,Funil,180,-21.1436,-45.0372,Hydro
Brazil,Funil,30,-14.1833,-39.4667,Hydro
Brazil,Furlan,3.6,-22.7576,-47.4689,Biomass
Brazil,Furlan Avaré,30,-23.0459,-49.0334,Biomass
Brazil,Furnas,1216,-20.6471,-46.3286,Hydro
Brazil,Furnas do Segredo,9.8,-29.3653,-54.5039,Hydro
Brazil,Furquim,6,-20.3667,-43.2033,Hydro
Brazil,Fábrica de Ideias Indústria e Comércio,1.016,-23.6449,-46.8428,Oil
Brazil,G,1.44,-20.1364,-43.8717,Hydro
Brazil,GB Silvio Teixeira,1.08,-10.938,-37.0493,Oil
Brazil,GE Celma,1.063,-22.501,-43.1695,Gas
Brazil,GNA-RD,1.2,-16.7193,-49.2547,Oil
Brazil,GPA - Loja1370,1.408,-23.9582,-46.3703,Oil
Brazil,GPA - Loja1382,1.08,-23.5263,-47.4544,Oil
Brazil,GRAFITE ITAPECERICA,2.1888,-20.4685,-45.1161,Oil
Brazil,GTBX-ST-RJO,3,-22.9981,-43.6061,Oil
Brazil,Gabriel Passos,9.22,-19.9105,-44.1889,Oil
Brazil,Galheiros I,12.06,-13.3934,-46.3906,Hydro
Brazil,Galpões,8,-30.8807,-55.6765,Wind
Brazil,Galvani,11.5,-22.7444,-47.1356,Biomass
Brazil,Galvani,5,-12.8694,-38.5052,Oil
Brazil,Galópolis,1.5,-29.2501,-51.1676,Hydro
